{
"type": "FeatureCollection",
"name": "w_japan_rein",
"crs": { "type": "name", "properties": { "name": "urn:ogc:def:crs:OGC:1.3:CRS84" } },
"features": [
{ "type": "Feature", "properties": { "X": 133.71445, "Y": 34.59990833, "Name": "若葉台団地", "city_NAME": "倉敷市", "city_code": 33202, "kyusui_day": null, "kyusuiTIME": null, "page_day": "7月24日", "kaisi_day": null, "heisa_text": "7月16日12時閉鎖", "heisa_tag": 1, "tyosa_day": "9月13日", "tyousa_sya": "浅野", "URL": "http:\/\/www.city.kurashiki.okayama.jp\/5113.htm" }, "geometry": { "type": "Point", "coordinates": [ 133.71445, 34.59990833 ] } },
{ "type": "Feature", "properties": { "X": 133.7085512, "Y": 34.6061795, "Name": "二万小学校", "city_NAME": "倉敷市", "city_code": 33202, "kyusui_day": null, "kyusuiTIME": null, "page_day": "7月24日", "kaisi_day": null, "heisa_text": "7月16日12時閉鎖", "heisa_tag": 1, "tyosa_day": "9月13日", "tyousa_sya": "浅野", "URL": "http:\/\/www.city.kurashiki.okayama.jp\/5113.htm" }, "geometry": { "type": "Point", "coordinates": [ 133.708551199999988, 34.6061795 ] } },
{ "type": "Feature", "properties": { "X": 133.6925331, "Y": 34.648013, "Name": "薗小学校", "city_NAME": "倉敷市", "city_code": 33202, "kyusui_day": null, "kyusuiTIME": null, "page_day": "7月24日", "kaisi_day": null, "heisa_text": "7月24日9時閉鎖", "heisa_tag": 1, "tyosa_day": "9月13日", "tyousa_sya": "浅野", "URL": "http:\/\/www.city.kurashiki.okayama.jp\/5113.htm" }, "geometry": { "type": "Point", "coordinates": [ 133.6925331, 34.648013 ] } },
{ "type": "Feature", "properties": { "X": 133.705641, "Y": 34.6460204, "Name": "岡田小学校", "city_NAME": "倉敷市", "city_code": 33202, "kyusui_day": null, "kyusuiTIME": null, "page_day": "7月24日", "kaisi_day": null, "heisa_text": "7月24日9時閉鎖", "heisa_tag": 1, "tyosa_day": "9月13日", "tyousa_sya": "浅野", "URL": "http:\/\/www.city.kurashiki.okayama.jp\/5113.htm" }, "geometry": { "type": "Point", "coordinates": [ 133.705641, 34.6460204 ] } },
{ "type": "Feature", "properties": { "X": 133.6567779, "Y": 34.6253597, "Name": "呉妹小学校", "city_NAME": "倉敷市", "city_code": 33202, "kyusui_day": null, "kyusuiTIME": null, "page_day": "7月24日", "kaisi_day": null, "heisa_text": "7月24日9時閉鎖", "heisa_tag": 1, "tyosa_day": "9月13日", "tyousa_sya": "浅野", "URL": "http:\/\/www.city.kurashiki.okayama.jp\/5113.htm" }, "geometry": { "type": "Point", "coordinates": [ 133.6567779, 34.6253597 ] } },
{ "type": "Feature", "properties": { "X": 133.7042074, "Y": 34.6459189, "Name": "真備ふるさと歴史館", "city_NAME": "倉敷市", "city_code": 33202, "kyusui_day": null, "kyusuiTIME": null, "page_day": "7月24日", "kaisi_day": null, "heisa_text": "7月24日20時閉鎖", "heisa_tag": 1, "tyosa_day": "9月13日", "tyousa_sya": "浅野", "URL": "http:\/\/www.city.kurashiki.okayama.jp\/5113.htm" }, "geometry": { "type": "Point", "coordinates": [ 133.7042074, 34.6459189 ] } },
{ "type": "Feature", "properties": { "X": 133.69194, "Y": 34.63258, "Name": "真備旭ヶ丘団地第一公園", "city_NAME": "倉敷市", "city_code": 33202, "kyusui_day": null, "kyusuiTIME": null, "page_day": "7月24日", "kaisi_day": null, "heisa_text": "7月24日9時閉鎖", "heisa_tag": 1, "tyosa_day": "9月13日", "tyousa_sya": "浅野", "URL": "http:\/\/www.city.kurashiki.okayama.jp\/5113.htm" }, "geometry": { "type": "Point", "coordinates": [ 133.69194, 34.63258 ] } },
{ "type": "Feature", "properties": { "X": 133.6918759, "Y": 34.6289539, "Name": "真備支所", "city_NAME": "倉敷市", "city_code": 33202, "kyusui_day": null, "kyusuiTIME": null, "page_day": "7月24日", "kaisi_day": null, "heisa_text": "7月24日9時閉鎖", "heisa_tag": 1, "tyosa_day": "9月13日", "tyousa_sya": "浅野", "URL": "http:\/\/www.city.kurashiki.okayama.jp\/5113.htm" }, "geometry": { "type": "Point", "coordinates": [ 133.691875900000014, 34.6289539 ] } },
{ "type": "Feature", "properties": { "X": 133.6844811, "Y": 34.6423684, "Name": "真備総合公園", "city_NAME": "倉敷市", "city_code": 33202, "kyusui_day": null, "kyusuiTIME": null, "page_day": "7月24日", "kaisi_day": null, "heisa_text": "7月24日20時閉鎖", "heisa_tag": 1, "tyosa_day": "9月13日", "tyousa_sya": "浅野", "URL": "http:\/\/www.city.kurashiki.okayama.jp\/5113.htm" }, "geometry": { "type": "Point", "coordinates": [ 133.6844811, 34.6423684 ] } },
{ "type": "Feature", "properties": { "X": 133.5881495, "Y": 34.7773589, "Name": "イズミゆめタウン高梁", "city_NAME": "高梁市", "city_code": 33209, "kyusui_day": null, "kyusuiTIME": null, "page_day": "07月18日  12:00", "kaisi_day": null, "heisa_text": "7月18日12時閉鎖", "heisa_tag": 1, "tyosa_day": "9月13日", "tyousa_sya": "浅野", "URL": "https:\/\/www.city.takahashi.lg.jp\/site\/201807gouu-nisinippongouu\/dansuijoho.html" }, "geometry": { "type": "Point", "coordinates": [ 133.588149499999986, 34.7773589 ] } },
{ "type": "Feature", "properties": { "X": 133.6408992, "Y": 34.8723601, "Name": "巨瀬地域市民センター", "city_NAME": "高梁市", "city_code": 33209, "kyusui_day": null, "kyusuiTIME": null, "page_day": "7月14日", "kaisi_day": null, "heisa_text": "7月14日14時閉鎖", "heisa_tag": 1, "tyosa_day": "9月13日", "tyousa_sya": "浅野", "URL": "https:\/\/www.city.takahashi.lg.jp\/site\/201807gouu-nisinippongouu\/dansuijoho.html" }, "geometry": { "type": "Point", "coordinates": [ 133.6408992, 34.8723601 ] } },
{ "type": "Feature", "properties": { "X": 133.60111, "Y": 34.7544413, "Name": "玉川小学校", "city_NAME": "高梁市", "city_code": 33209, "kyusui_day": null, "kyusuiTIME": null, "page_day": "07月18日  12:00", "kaisi_day": null, "heisa_text": "7月18日12時閉鎖", "heisa_tag": 1, "tyosa_day": "9月13日", "tyousa_sya": "浅野", "URL": "https:\/\/www.city.takahashi.lg.jp\/site\/201807gouu-nisinippongouu\/dansuijoho.html" }, "geometry": { "type": "Point", "coordinates": [ 133.60111, 34.7544413 ] } },
{ "type": "Feature", "properties": { "X": 133.5784949, "Y": 34.8565597, "Name": "高倉地域市民センター", "city_NAME": "高梁市", "city_code": 33209, "kyusui_day": null, "kyusuiTIME": null, "page_day": "7月14日", "kaisi_day": null, "heisa_text": "7月14日14時閉鎖", "heisa_tag": 1, "tyosa_day": "9月13日", "tyousa_sya": "浅野", "URL": "https:\/\/www.city.takahashi.lg.jp\/site\/201807gouu-nisinippongouu\/dansuijoho.html" }, "geometry": { "type": "Point", "coordinates": [ 133.57849490000001, 34.8565597 ] } },
{ "type": "Feature", "properties": { "X": 133.6105594, "Y": 34.7909531, "Name": "高梁地域事務所 ", "city_NAME": "高梁市", "city_code": 33209, "kyusui_day": null, "kyusuiTIME": null, "page_day": "07月18日  12:00", "kaisi_day": null, "heisa_text": "7月18日12時閉鎖", "heisa_tag": 1, "tyosa_day": "9月13日", "tyousa_sya": "浅野", "URL": "https:\/\/www.city.takahashi.lg.jp\/site\/201807gouu-nisinippongouu\/dansuijoho.html" }, "geometry": { "type": "Point", "coordinates": [ 133.6105594, 34.7909531 ] } },
{ "type": "Feature", "properties": { "X": 133.5602036, "Y": 34.8199734, "Name": "松原地域市民センター", "city_NAME": "高梁市", "city_code": 33209, "kyusui_day": null, "kyusuiTIME": null, "page_day": "07月18日  12:00", "kaisi_day": null, "heisa_text": "7月18日12時閉鎖", "heisa_tag": 1, "tyosa_day": "9月13日", "tyousa_sya": "浅野", "URL": "https:\/\/www.city.takahashi.lg.jp\/site\/201807gouu-nisinippongouu\/dansuijoho.html" }, "geometry": { "type": "Point", "coordinates": [ 133.5602036, 34.8199734 ] } },
{ "type": "Feature", "properties": { "X": 133.5932967, "Y": 34.848988, "Name": "川面地域市民センター", "city_NAME": "高梁市", "city_code": 33209, "kyusui_day": null, "kyusuiTIME": null, "page_day": "7月14日", "kaisi_day": null, "heisa_text": "7月14日14時閉鎖", "heisa_tag": 1, "tyosa_day": "9月13日", "tyousa_sya": "浅野", "URL": "https:\/\/www.city.takahashi.lg.jp\/site\/201807gouu-nisinippongouu\/dansuijoho.html" }, "geometry": { "type": "Point", "coordinates": [ 133.5932967, 34.848988 ] } },
{ "type": "Feature", "properties": { "X": 133.6298767, "Y": 34.8300314, "Name": "津川地域市民センター", "city_NAME": "高梁市", "city_code": 33209, "kyusui_day": null, "kyusuiTIME": null, "page_day": "7月14日", "kaisi_day": null, "heisa_text": "7月14日14時閉鎖", "heisa_tag": 1, "tyosa_day": "9月13日", "tyousa_sya": "浅野", "URL": "https:\/\/www.city.takahashi.lg.jp\/site\/201807gouu-nisinippongouu\/dansuijoho.html" }, "geometry": { "type": "Point", "coordinates": [ 133.629876700000011, 34.8300314 ] } },
{ "type": "Feature", "properties": { "X": 133.5492723, "Y": 34.7970027, "Name": "福地小学校", "city_NAME": "高梁市", "city_code": 33209, "kyusui_day": null, "kyusuiTIME": null, "page_day": "07月18日  12:00", "kaisi_day": null, "heisa_text": "7月18日12時閉鎖", "heisa_tag": 1, "tyosa_day": "9月13日", "tyousa_sya": "浅野", "URL": "https:\/\/www.city.takahashi.lg.jp\/site\/201807gouu-nisinippongouu\/dansuijoho.html" }, "geometry": { "type": "Point", "coordinates": [ 133.549272300000013, 34.7970027 ] } },
{ "type": "Feature", "properties": { "X": 133.5203406, "Y": 34.9269807, "Name": "下井倉地区（場所未確定）", "city_NAME": "新見市", "city_code": 33210, "kyusui_day": null, "kyusuiTIME": null, "page_day": "7月28日", "kaisi_day": null, "heisa_text": "閉鎖", "heisa_tag": 1, "tyosa_day": "9月13日", "tyousa_sya": "浅野", "URL": "https:\/\/www.city.niimi.okayama.jp\/kurashi\/index.html" }, "geometry": { "type": "Point", "coordinates": [ 133.5203406, 34.9269807 ] } },
{ "type": "Feature", "properties": { "X": 133.5555728, "Y": 34.9176802, "Name": "岩中公会堂", "city_NAME": "新見市", "city_code": 33210, "kyusui_day": null, "kyusuiTIME": null, "page_day": "7月28日", "kaisi_day": null, "heisa_text": "7月28日15:00閉鎖", "heisa_tag": 1, "tyosa_day": "9月13日", "tyousa_sya": "浅野", "URL": "https:\/\/www.city.niimi.okayama.jp\/kurashi\/index.html" }, "geometry": { "type": "Point", "coordinates": [ 133.5555728, 34.9176802 ] } },
{ "type": "Feature", "properties": { "X": 133.5269147, "Y": 34.9300231, "Name": "カルスト山荘", "city_NAME": "新見市", "city_code": 33210, "kyusui_day": null, "kyusuiTIME": null, "page_day": "7月28日", "kaisi_day": null, "heisa_text": "7月28日15:00閉鎖", "heisa_tag": 1, "tyosa_day": "9月13日", "tyousa_sya": "浅野", "URL": "https:\/\/www.city.niimi.okayama.jp\/kurashi\/index.html" }, "geometry": { "type": "Point", "coordinates": [ 133.5269147, 34.9300231 ] } },
{ "type": "Feature", "properties": { "X": 133.54532, "Y": 34.91504, "Name": "宮原公会堂", "city_NAME": "新見市", "city_code": 33210, "kyusui_day": null, "kyusuiTIME": null, "page_day": "7月28日", "kaisi_day": null, "heisa_text": "閉鎖", "heisa_tag": 1, "tyosa_day": "9月13日", "tyousa_sya": "浅野", "URL": "https:\/\/www.city.niimi.okayama.jp\/kurashi\/index.html" }, "geometry": { "type": "Point", "coordinates": [ 133.54532, 34.91504 ] } },
{ "type": "Feature", "properties": { "X": 133.5411774, "Y": 34.9313645, "Name": "草間市民センター", "city_NAME": "新見市", "city_code": 33210, "kyusui_day": null, "kyusuiTIME": null, "page_day": "7月28日", "kaisi_day": null, "heisa_text": "7月28日15:00閉鎖", "heisa_tag": 1, "tyosa_day": "9月13日", "tyousa_sya": "浅野", "URL": "https:\/\/www.city.niimi.okayama.jp\/kurashi\/index.html" }, "geometry": { "type": "Point", "coordinates": [ 133.5411774, 34.9313645 ] } },
{ "type": "Feature", "properties": { "X": 133.5163589, "Y": 34.9442748, "Name": "足見ふれあいセンター", "city_NAME": "新見市", "city_code": 33210, "kyusui_day": null, "kyusuiTIME": null, "page_day": "7月28日", "kaisi_day": null, "heisa_text": "7月28日15:00閉鎖", "heisa_tag": 1, "tyosa_day": "9月13日", "tyousa_sya": "浅野", "URL": "https:\/\/www.city.niimi.okayama.jp\/kurashi\/index.html" }, "geometry": { "type": "Point", "coordinates": [ 133.5163589, 34.9442748 ] } },
{ "type": "Feature", "properties": { "X": 133.5485709, "Y": 34.9397961, "Name": "大原観光果樹園", "city_NAME": "新見市", "city_code": 33210, "kyusui_day": null, "kyusuiTIME": null, "page_day": "7月28日", "kaisi_day": null, "heisa_text": "7月28日15:00閉鎖", "heisa_tag": 1, "tyosa_day": "9月13日", "tyousa_sya": "浅野", "URL": "https:\/\/www.city.niimi.okayama.jp\/kurashi\/index.html" }, "geometry": { "type": "Point", "coordinates": [ 133.548570899999987, 34.9397961 ] } },
{ "type": "Feature", "properties": { "X": 133.5459262, "Y": 34.9591505, "Name": "土橋交流センター", "city_NAME": "新見市", "city_code": 33210, "kyusui_day": null, "kyusuiTIME": null, "page_day": "7月28日", "kaisi_day": null, "heisa_text": "7月28日15:00閉鎖", "heisa_tag": 1, "tyosa_day": "9月13日", "tyousa_sya": "浅野", "URL": "https:\/\/www.city.niimi.okayama.jp\/kurashi\/index.html" }, "geometry": { "type": "Point", "coordinates": [ 133.5459262, 34.9591505 ] } },
{ "type": "Feature", "properties": { "X": 133.5693097, "Y": 34.6205369, "Name": "Ｂ＆Ｇ海洋センター", "city_NAME": "矢掛町", "city_code": 33461, "kyusui_day": null, "kyusuiTIME": null, "page_day": "7月14日", "kaisi_day": null, "heisa_text": "7月14日 14時閉鎖", "heisa_tag": 1, "tyosa_day": "9月13日", "tyousa_sya": "浅野", "URL": "http:\/\/www.town.yakage.okayama.jp\/" }, "geometry": { "type": "Point", "coordinates": [ 133.5693097, 34.6205369 ] } },
{ "type": "Feature", "properties": { "X": 133.6162631, "Y": 34.619175, "Name": "三谷小学校", "city_NAME": "矢掛町", "city_code": 33461, "kyusui_day": null, "kyusuiTIME": null, "page_day": "7月14日", "kaisi_day": null, "heisa_text": "7月14日 14時閉鎖", "heisa_tag": 1, "tyosa_day": "9月13日", "tyousa_sya": "浅野", "URL": "http:\/\/www.town.yakage.okayama.jp\/" }, "geometry": { "type": "Point", "coordinates": [ 133.6162631, 34.619175 ] } },
{ "type": "Feature", "properties": { "X": 133.598979, "Y": 34.5976652, "Name": "山田小学校", "city_NAME": "矢掛町", "city_code": 33461, "kyusui_day": null, "kyusuiTIME": null, "page_day": "7月14日", "kaisi_day": null, "heisa_text": "7月14日 14時閉鎖", "heisa_tag": 1, "tyosa_day": "9月13日", "tyousa_sya": "浅野", "URL": "http:\/\/www.town.yakage.okayama.jp\/" }, "geometry": { "type": "Point", "coordinates": [ 133.598979, 34.5976652 ] } },
{ "type": "Feature", "properties": { "X": 133.5439736, "Y": 34.6158353, "Name": "小田小学校", "city_NAME": "矢掛町", "city_code": 33461, "kyusui_day": null, "kyusuiTIME": null, "page_day": "7月14日", "kaisi_day": null, "heisa_text": "7月14日 14時閉鎖", "heisa_tag": 1, "tyosa_day": "9月13日", "tyousa_sya": "浅野", "URL": "http:\/\/www.town.yakage.okayama.jp\/" }, "geometry": { "type": "Point", "coordinates": [ 133.543973599999987, 34.6158353 ] } },
{ "type": "Feature", "properties": { "X": 133.5685748, "Y": 34.6250429, "Name": "川面小学校", "city_NAME": "矢掛町", "city_code": 33461, "kyusui_day": null, "kyusuiTIME": null, "page_day": "7月14日", "kaisi_day": null, "heisa_text": "7月14日 14時閉鎖", "heisa_tag": 1, "tyosa_day": "9月13日", "tyousa_sya": "浅野", "URL": "http:\/\/www.town.yakage.okayama.jp\/" }, "geometry": { "type": "Point", "coordinates": [ 133.5685748, 34.6250429 ] } },
{ "type": "Feature", "properties": { "X": 133.5881093, "Y": 34.6637508, "Name": "美川小学校", "city_NAME": "矢掛町", "city_code": 33461, "kyusui_day": null, "kyusuiTIME": null, "page_day": "7月14日", "kaisi_day": null, "heisa_text": "7月14日 14時閉鎖", "heisa_tag": 1, "tyosa_day": "9月13日", "tyousa_sya": "浅野", "URL": "http:\/\/www.town.yakage.okayama.jp\/" }, "geometry": { "type": "Point", "coordinates": [ 133.588109300000013, 34.6637508 ] } },
{ "type": "Feature", "properties": { "X": 133.58558, "Y": 34.6270503, "Name": "矢掛小学校", "city_NAME": "矢掛町", "city_code": 33461, "kyusui_day": null, "kyusuiTIME": null, "page_day": "7月14日", "kaisi_day": null, "heisa_text": "7月14日 14時閉鎖", "heisa_tag": 1, "tyosa_day": "9月13日", "tyousa_sya": "浅野", "URL": "http:\/\/www.town.yakage.okayama.jp\/" }, "geometry": { "type": "Point", "coordinates": [ 133.58558, 34.6270503 ] } },
{ "type": "Feature", "properties": { "X": 132.553242, "Y": 34.3163668, "Name": "セブンイレブン広島矢野寺屋敷店", "city_NAME": "広島市", "city_code": 34100, "kyusui_day": null, "kyusuiTIME": null, "page_day": "7月29日", "kaisi_day": null, "heisa_text": "閉鎖", "heisa_tag": 1, "tyosa_day": "9月13日", "tyousa_sya": "浅野", "URL": "http:\/\/www.water.city.hiroshima.jp\/news\/kinkyu\/kinkyu.html" }, "geometry": { "type": "Point", "coordinates": [ 132.553242, 34.3163668 ] } },
{ "type": "Feature", "properties": { "X": 132.6266239, "Y": 34.3848221, "Name": "阿戸小学校", "city_NAME": "広島市", "city_code": 34100, "kyusui_day": null, "kyusuiTIME": null, "page_day": "7月29日", "kaisi_day": null, "heisa_text": "閉鎖", "heisa_tag": 1, "tyosa_day": "9月13日", "tyousa_sya": "浅野", "URL": "http:\/\/www.water.city.hiroshima.jp\/news\/kinkyu\/kinkyu.html" }, "geometry": { "type": "Point", "coordinates": [ 132.6266239, 34.3848221 ] } },
{ "type": "Feature", "properties": { "X": 132.6117852, "Y": 34.5128314, "Name": "三田小学校", "city_NAME": "広島市", "city_code": 34100, "kyusui_day": null, "kyusuiTIME": null, "page_day": "7月29日", "kaisi_day": null, "heisa_text": "閉鎖", "heisa_tag": 1, "tyosa_day": "9月13日", "tyousa_sya": "浅野", "URL": "http:\/\/www.water.city.hiroshima.jp\/news\/kinkyu\/kinkyu.html" }, "geometry": { "type": "Point", "coordinates": [ 132.611785200000014, 34.5128314 ] } },
{ "type": "Feature", "properties": { "X": 132.5671305, "Y": 34.4813752, "Name": "狩小川小学校", "city_NAME": "広島市", "city_code": 34100, "kyusui_day": null, "kyusuiTIME": null, "page_day": "7月29日", "kaisi_day": null, "heisa_text": "7月20日 閉鎖", "heisa_tag": 1, "tyosa_day": "9月13日", "tyousa_sya": "浅野", "URL": "http:\/\/www.water.city.hiroshima.jp\/news\/kinkyu\/kinkyu.html" }, "geometry": { "type": "Point", "coordinates": [ 132.5671305, 34.4813752 ] } },
{ "type": "Feature", "properties": { "X": 132.5145511, "Y": 34.3279179, "Name": "上条児童遊園地", "city_NAME": "広島市", "city_code": 34100, "kyusui_day": null, "kyusuiTIME": null, "page_day": "7月29日", "kaisi_day": null, "heisa_text": "閉鎖", "heisa_tag": 1, "tyosa_day": "9月13日", "tyousa_sya": "浅野", "URL": "http:\/\/www.water.city.hiroshima.jp\/news\/kinkyu\/kinkyu.html" }, "geometry": { "type": "Point", "coordinates": [ 132.5145511, 34.3279179 ] } },
{ "type": "Feature", "properties": { "X": 132.6344372, "Y": 34.4348158, "Name": "瀬野川公園入口", "city_NAME": "広島市", "city_code": 34100, "kyusui_day": null, "kyusuiTIME": null, "page_day": "7月29日", "kaisi_day": null, "heisa_text": "閉鎖", "heisa_tag": 1, "tyosa_day": "9月13日", "tyousa_sya": "浅野", "URL": "http:\/\/www.water.city.hiroshima.jp\/news\/kinkyu\/kinkyu.html" }, "geometry": { "type": "Point", "coordinates": [ 132.6344372, 34.4348158 ] } },
{ "type": "Feature", "properties": { "X": 132.5807923, "Y": 34.4036167, "Name": "中野東小学校", "city_NAME": "広島市", "city_code": 34100, "kyusui_day": null, "kyusuiTIME": null, "page_day": "7月29日", "kaisi_day": null, "heisa_text": "閉鎖", "heisa_tag": 1, "tyosa_day": "9月13日", "tyousa_sya": "浅野", "URL": "http:\/\/www.water.city.hiroshima.jp\/news\/kinkyu\/kinkyu.html" }, "geometry": { "type": "Point", "coordinates": [ 132.580792300000013, 34.4036167 ] } },
{ "type": "Feature", "properties": { "X": 132.6356153, "Y": 34.5285882, "Name": "鳥井原バス停前（広交観光バス転向場）", "city_NAME": "広島市", "city_code": 34100, "kyusui_day": null, "kyusuiTIME": null, "page_day": "7月29日", "kaisi_day": null, "heisa_text": "閉鎖", "heisa_tag": 1, "tyosa_day": "9月13日", "tyousa_sya": "浅野", "URL": "http:\/\/www.water.city.hiroshima.jp\/news\/kinkyu\/kinkyu.html" }, "geometry": { "type": "Point", "coordinates": [ 132.635615300000012, 34.5285882 ] } },
{ "type": "Feature", "properties": { "X": 132.5504632, "Y": 34.3938954, "Name": "畑賀小学校", "city_NAME": "広島市", "city_code": 34100, "kyusui_day": null, "kyusuiTIME": null, "page_day": "7月29日", "kaisi_day": null, "heisa_text": "7月14日閉鎖", "heisa_tag": 1, "tyosa_day": "9月13日", "tyousa_sya": "浅野", "URL": "http:\/\/www.water.city.hiroshima.jp\/news\/kinkyu\/kinkyu.html" }, "geometry": { "type": "Point", "coordinates": [ 132.5504632, 34.3938954 ] } },
{ "type": "Feature", "properties": { "X": 132.5509433, "Y": 34.3941212, "Name": "畑賀福祉センター", "city_NAME": "広島市", "city_code": 34100, "kyusui_day": null, "kyusuiTIME": null, "page_day": "7月29日", "kaisi_day": null, "heisa_text": "閉鎖", "heisa_tag": 1, "tyosa_day": "9月13日", "tyousa_sya": "浅野", "URL": "http:\/\/www.water.city.hiroshima.jp\/news\/kinkyu\/kinkyu.html" }, "geometry": { "type": "Point", "coordinates": [ 132.5509433, 34.3941212 ] } },
{ "type": "Feature", "properties": { "X": 132.6565339, "Y": 34.5521969, "Name": "ＪＡ広島市白木支店", "city_NAME": "広島市", "city_code": 34100, "kyusui_day": null, "kyusuiTIME": null, "page_day": "7月29日", "kaisi_day": null, "heisa_text": "7月21日閉鎖", "heisa_tag": 1, "tyosa_day": "9月13日", "tyousa_sya": "浅野", "URL": "http:\/\/www.water.city.hiroshima.jp\/news\/kinkyu\/kinkyu.html" }, "geometry": { "type": "Point", "coordinates": [ 132.6565339, 34.5521969 ] } },
{ "type": "Feature", "properties": { "X": 132.6770662, "Y": 34.5860278, "Name": "井原小学校", "city_NAME": "広島市", "city_code": 34100, "kyusui_day": null, "kyusuiTIME": null, "page_day": "7月29日", "kaisi_day": null, "heisa_text": "7月27日閉鎖", "heisa_tag": 1, "tyosa_day": "9月13日", "tyousa_sya": "浅野", "URL": "http:\/\/www.water.city.hiroshima.jp\/news\/kinkyu\/kinkyu.html" }, "geometry": { "type": "Point", "coordinates": [ 132.677066200000013, 34.5860278 ] } },
{ "type": "Feature", "properties": { "X": 132.7193137, "Y": 34.6113652, "Name": "向原生涯学習センターみらい", "city_NAME": "広島市", "city_code": 34100, "kyusui_day": null, "kyusuiTIME": null, "page_day": "7月29日", "kaisi_day": null, "heisa_text": "7月21日閉鎖", "heisa_tag": 1, "tyosa_day": "9月13日", "tyousa_sya": "浅野", "URL": "http:\/\/www.water.city.hiroshima.jp\/news\/kinkyu\/kinkyu.html" }, "geometry": { "type": "Point", "coordinates": [ 132.719313699999987, 34.6113652 ] } },
{ "type": "Feature", "properties": { "X": 132.6586166, "Y": 34.5502329, "Name": "高南小学校", "city_NAME": "広島市", "city_code": 34100, "kyusui_day": null, "kyusuiTIME": null, "page_day": "7月29日", "kaisi_day": null, "heisa_text": "7月21日閉鎖", "heisa_tag": 1, "tyosa_day": "9月13日", "tyousa_sya": "浅野", "URL": "http:\/\/www.water.city.hiroshima.jp\/news\/kinkyu\/kinkyu.html" }, "geometry": { "type": "Point", "coordinates": [ 132.658616599999988, 34.5502329 ] } },
{ "type": "Feature", "properties": { "X": 132.6178108, "Y": 34.5784224, "Name": "志屋小学校", "city_NAME": "広島市", "city_code": 34100, "kyusui_day": null, "kyusuiTIME": null, "page_day": "7月29日", "kaisi_day": null, "heisa_text": "7月27日閉鎖", "heisa_tag": 1, "tyosa_day": "9月13日", "tyousa_sya": "浅野", "URL": "http:\/\/www.water.city.hiroshima.jp\/news\/kinkyu\/kinkyu.html" }, "geometry": { "type": "Point", "coordinates": [ 132.6178108, 34.5784224 ] } },
{ "type": "Feature", "properties": { "X": 132.6528, "Y": 34.43531, "Name": "清松園団地内", "city_NAME": "広島市", "city_code": 34100, "kyusui_day": null, "kyusuiTIME": null, "page_day": "7月29日", "kaisi_day": null, "heisa_text": "7月26日閉鎖", "heisa_tag": 1, "tyosa_day": "9月13日", "tyousa_sya": "浅野", "URL": "http:\/\/www.water.city.hiroshima.jp\/news\/kinkyu\/kinkyu.html" }, "geometry": { "type": "Point", "coordinates": [ 132.6528, 34.43531 ] } },
{ "type": "Feature", "properties": { "X": 132.58484, "Y": 34.47301, "Name": "湯坂集会所", "city_NAME": "広島市", "city_code": 34100, "kyusui_day": null, "kyusuiTIME": null, "page_day": "7月29日", "kaisi_day": "7月21日", "heisa_text": "8月01日閉鎖", "heisa_tag": 1, "tyosa_day": "9月13日", "tyousa_sya": "浅野", "URL": "http:\/\/www.water.city.hiroshima.jp\/news\/kinkyu\/kinkyu.html" }, "geometry": { "type": "Point", "coordinates": [ 132.58484, 34.47301 ] } },
{ "type": "Feature", "properties": { "X": 132.64769, "Y": 34.54565, "Name": "須沢集会所", "city_NAME": "広島市", "city_code": 34100, "kyusui_day": null, "kyusuiTIME": null, "page_day": "7月29日", "kaisi_day": "7月22日", "heisa_text": "7月23日閉鎖", "heisa_tag": 1, "tyosa_day": "9月13日", "tyousa_sya": "浅野", "URL": "http:\/\/www.water.city.hiroshima.jp\/news\/kinkyu\/kinkyu.html" }, "geometry": { "type": "Point", "coordinates": [ 132.64769, 34.54565 ] } },
{ "type": "Feature", "properties": { "X": 132.50805, "Y": 34.30478, "Name": "藤之脇第二公園", "city_NAME": "広島市", "city_code": 34100, "kyusui_day": null, "kyusuiTIME": null, "page_day": "8月11日", "kaisi_day": null, "heisa_text": "8月10日断水解消", "heisa_tag": 1, "tyosa_day": "9月13日", "tyousa_sya": "浅野", "URL": "http:\/\/www.water.city.hiroshima.jp\/gouu.html" }, "geometry": { "type": "Point", "coordinates": [ 132.50805, 34.30478 ] } },
{ "type": "Feature", "properties": { "X": 132.6344861, "Y": 34.4351598, "Name": "富士運送株式会社（瀬野川公園入口前）", "city_NAME": "広島市", "city_code": 34100, "kyusui_day": null, "kyusuiTIME": null, "page_day": "7月29日", "kaisi_day": "7月14日", "heisa_text": "7月26日閉鎖", "heisa_tag": 1, "tyosa_day": "9月13日", "tyousa_sya": "浅野", "URL": "http:\/\/www.water.city.hiroshima.jp\/news\/kinkyu\/kinkyu.html" }, "geometry": { "type": "Point", "coordinates": [ 132.6344861, 34.4351598 ] } },
{ "type": "Feature", "properties": { "X": 132.7401826, "Y": 34.2864655, "Name": "ディスカウントドラッグコスモス安浦店，信楽寺駐車場", "city_NAME": "呉市", "city_code": 34202, "kyusui_day": null, "kyusuiTIME": null, "page_day": "8月2日", "kaisi_day": null, "heisa_text": "閉鎖", "heisa_tag": 1, "tyosa_day": "9月13日", "tyousa_sya": "浅野", "URL": "https:\/\/www.city.kure.lg.jp\/site\/jougesui\/kinkyuu-dansui20180707-02.html" }, "geometry": { "type": "Point", "coordinates": [ 132.7401826, 34.2864655 ] } },
{ "type": "Feature", "properties": { "X": 132.5991587, "Y": 34.2330998, "Name": "阿賀小学校", "city_NAME": "呉市", "city_code": 34202, "kyusui_day": null, "kyusuiTIME": null, "page_day": "8月2日", "kaisi_day": null, "heisa_text": "閉鎖", "heisa_tag": 1, "tyosa_day": "9月13日", "tyousa_sya": "浅野", "URL": "https:\/\/www.city.kure.lg.jp\/site\/jougesui\/kinkyuu-dansui20180707-02.html" }, "geometry": { "type": "Point", "coordinates": [ 132.5991587, 34.2330998 ] } },
{ "type": "Feature", "properties": { "X": 132.5968681, "Y": 34.2399184, "Name": "阿賀中央公園", "city_NAME": "呉市", "city_code": 34202, "kyusui_day": null, "kyusuiTIME": null, "page_day": "8月2日", "kaisi_day": null, "heisa_text": "閉鎖", "heisa_tag": 1, "tyosa_day": "9月13日", "tyousa_sya": "浅野", "URL": "https:\/\/www.city.kure.lg.jp\/site\/jougesui\/kinkyuu-dansui20180707-02.html" }, "geometry": { "type": "Point", "coordinates": [ 132.5968681, 34.2399184 ] } },
{ "type": "Feature", "properties": { "X": 132.7443574, "Y": 34.2818924, "Name": "安浦市民センター", "city_NAME": "呉市", "city_code": 34202, "kyusui_day": null, "kyusuiTIME": null, "page_day": "8月2日", "kaisi_day": null, "heisa_text": "閉鎖", "heisa_tag": 1, "tyosa_day": "9月13日", "tyousa_sya": "浅野", "URL": "https:\/\/www.city.kure.lg.jp\/site\/jougesui\/kinkyuu-dansui20180707-02.html" }, "geometry": { "type": "Point", "coordinates": [ 132.744357400000013, 34.2818924 ] } },
{ "type": "Feature", "properties": { "X": 132.6314277, "Y": 34.2530846, "Name": "塩焼第一公園", "city_NAME": "呉市", "city_code": 34202, "kyusui_day": null, "kyusuiTIME": null, "page_day": "8月2日", "kaisi_day": null, "heisa_text": "閉鎖", "heisa_tag": 1, "tyosa_day": "9月13日", "tyousa_sya": "浅野", "URL": "https:\/\/www.city.kure.lg.jp\/site\/jougesui\/kinkyuu-dansui20180707-02.html" }, "geometry": { "type": "Point", "coordinates": [ 132.631427699999989, 34.2530846 ] } },
{ "type": "Feature", "properties": { "X": 132.6143655, "Y": 34.2424018, "Name": "横路小学校", "city_NAME": "呉市", "city_code": 34202, "kyusui_day": null, "kyusuiTIME": null, "page_day": "8月2日", "kaisi_day": null, "heisa_text": "閉鎖", "heisa_tag": 1, "tyosa_day": "9月13日", "tyousa_sya": "浅野", "URL": "https:\/\/www.city.kure.lg.jp\/site\/jougesui\/kinkyuu-dansui20180707-02.html" }, "geometry": { "type": "Point", "coordinates": [ 132.6143655, 34.2424018 ] } },
{ "type": "Feature", "properties": { "X": 132.534024, "Y": 34.1883337, "Name": "音戸市民センター", "city_NAME": "呉市", "city_code": 34202, "kyusui_day": null, "kyusuiTIME": null, "page_day": "8月2日", "kaisi_day": null, "heisa_text": "閉鎖", "heisa_tag": 1, "tyosa_day": "9月13日", "tyousa_sya": "浅野", "URL": "https:\/\/www.city.kure.lg.jp\/site\/jougesui\/kinkyuu-dansui20180707-02.html" }, "geometry": { "type": "Point", "coordinates": [ 132.534024, 34.1883337 ] } },
{ "type": "Feature", "properties": { "X": 132.6718614, "Y": 34.1924116, "Name": "下蒲刈まちづくりセンター（大津会館） ", "city_NAME": "呉市", "city_code": 34202, "kyusui_day": null, "kyusuiTIME": null, "page_day": "8月2日", "kaisi_day": null, "heisa_text": "閉鎖", "heisa_tag": 1, "tyosa_day": "9月13日", "tyousa_sya": "浅野", "URL": "https:\/\/www.city.kure.lg.jp\/site\/jougesui\/kinkyuu-dansui20180707-02.html" }, "geometry": { "type": "Point", "coordinates": [ 132.671861400000012, 34.1924116 ] } },
{ "type": "Feature", "properties": { "X": 132.6831762, "Y": 34.1863923, "Name": "下蒲刈市民センター", "city_NAME": "呉市", "city_code": 34202, "kyusui_day": null, "kyusuiTIME": null, "page_day": "8月2日", "kaisi_day": null, "heisa_text": "閉鎖", "heisa_tag": 1, "tyosa_day": "9月13日", "tyousa_sya": "浅野", "URL": "https:\/\/www.city.kure.lg.jp\/site\/jougesui\/kinkyuu-dansui20180707-02.html" }, "geometry": { "type": "Point", "coordinates": [ 132.6831762, 34.1863923 ] } },
{ "type": "Feature", "properties": { "X": 132.6888531, "Y": 34.1881651, "Name": "蒲刈警察官駐在所前", "city_NAME": "呉市", "city_code": 34202, "kyusui_day": null, "kyusuiTIME": null, "page_day": "8月2日", "kaisi_day": null, "heisa_text": "閉鎖", "heisa_tag": 1, "tyosa_day": "9月13日", "tyousa_sya": "浅野", "URL": "https:\/\/www.city.kure.lg.jp\/site\/jougesui\/kinkyuu-dansui20180707-02.html" }, "geometry": { "type": "Point", "coordinates": [ 132.688853099999989, 34.1881651 ] } },
{ "type": "Feature", "properties": { "X": 132.555546, "Y": 34.2267275, "Name": "宮原中学校", "city_NAME": "呉市", "city_code": 34202, "kyusui_day": null, "kyusuiTIME": null, "page_day": "8月2日", "kaisi_day": null, "heisa_text": "閉鎖", "heisa_tag": 1, "tyosa_day": "9月13日", "tyousa_sya": "浅野", "URL": "https:\/\/www.city.kure.lg.jp\/site\/jougesui\/kinkyuu-dansui20180707-02.html" }, "geometry": { "type": "Point", "coordinates": [ 132.555546, 34.2267275 ] } },
{ "type": "Feature", "properties": { "X": 132.4615225, "Y": 34.1143495, "Name": "旧JA呉重生店付近（所在未確定）", "city_NAME": "呉市", "city_code": 34202, "kyusui_day": null, "kyusuiTIME": null, "page_day": "8月2日", "kaisi_day": null, "heisa_text": "閉鎖", "heisa_tag": 1, "tyosa_day": "9月13日", "tyousa_sya": "浅野", "URL": "https:\/\/www.city.kure.lg.jp\/site\/jougesui\/kinkyuu-dansui20180707-02.html" }, "geometry": { "type": "Point", "coordinates": [ 132.4615225, 34.1143495 ] } },
{ "type": "Feature", "properties": { "X": 132.523621, "Y": 34.1604754, "Name": "旧奥内小学校", "city_NAME": "呉市", "city_code": 34202, "kyusui_day": null, "kyusuiTIME": null, "page_day": "8月2日", "kaisi_day": null, "heisa_text": "閉鎖", "heisa_tag": 1, "tyosa_day": "9月13日", "tyousa_sya": "浅野", "URL": "https:\/\/www.city.kure.lg.jp\/site\/jougesui\/kinkyuu-dansui20180707-02.html" }, "geometry": { "type": "Point", "coordinates": [ 132.523621, 34.1604754 ] } },
{ "type": "Feature", "properties": { "X": 132.6346296, "Y": 34.2078472, "Name": "旧小坪小学校", "city_NAME": "呉市", "city_code": 34202, "kyusui_day": null, "kyusuiTIME": null, "page_day": "8月2日", "kaisi_day": null, "heisa_text": "閉鎖", "heisa_tag": 1, "tyosa_day": "9月13日", "tyousa_sya": "浅野", "URL": "https:\/\/www.city.kure.lg.jp\/site\/jougesui\/kinkyuu-dansui20180707-02.html" }, "geometry": { "type": "Point", "coordinates": [ 132.634629600000011, 34.2078472 ] } },
{ "type": "Feature", "properties": { "X": 132.5128251, "Y": 34.1023493, "Name": "旧倉橋市民センター", "city_NAME": "呉市", "city_code": 34202, "kyusui_day": null, "kyusuiTIME": null, "page_day": "8月2日", "kaisi_day": null, "heisa_text": "閉鎖", "heisa_tag": 1, "tyosa_day": "9月13日", "tyousa_sya": "浅野", "URL": "https:\/\/www.city.kure.lg.jp\/site\/jougesui\/kinkyuu-dansui20180707-02.html" }, "geometry": { "type": "Point", "coordinates": [ 132.512825099999986, 34.1023493 ] } },
{ "type": "Feature", "properties": { "X": 132.4940161, "Y": 34.1575202, "Name": "旧早瀬小学校", "city_NAME": "呉市", "city_code": 34202, "kyusui_day": null, "kyusuiTIME": null, "page_day": "8月2日", "kaisi_day": null, "heisa_text": "閉鎖", "heisa_tag": 1, "tyosa_day": "9月13日", "tyousa_sya": "浅野", "URL": "https:\/\/www.city.kure.lg.jp\/site\/jougesui\/kinkyuu-dansui20180707-02.html" }, "geometry": { "type": "Point", "coordinates": [ 132.49401610000001, 34.1575202 ] } },
{ "type": "Feature", "properties": { "X": 132.5815018, "Y": 34.2116968, "Name": "旧大入小学校", "city_NAME": "呉市", "city_code": 34202, "kyusui_day": null, "kyusuiTIME": null, "page_day": "8月2日", "kaisi_day": null, "heisa_text": "閉鎖", "heisa_tag": 1, "tyosa_day": "9月13日", "tyousa_sya": "浅野", "URL": "https:\/\/www.city.kure.lg.jp\/site\/jougesui\/kinkyuu-dansui20180707-02.html" }, "geometry": { "type": "Point", "coordinates": [ 132.581501800000012, 34.2116968 ] } },
{ "type": "Feature", "properties": { "X": 132.5724426, "Y": 34.2580034, "Name": "旧辰川小学校（辰川会館）", "city_NAME": "呉市", "city_code": 34202, "kyusui_day": null, "kyusuiTIME": null, "page_day": "8月2日", "kaisi_day": null, "heisa_text": "閉鎖", "heisa_tag": 1, "tyosa_day": "9月13日", "tyousa_sya": "浅野", "URL": "https:\/\/www.city.kure.lg.jp\/site\/jougesui\/kinkyuu-dansui20180707-02.html" }, "geometry": { "type": "Point", "coordinates": [ 132.572442599999988, 34.2580034 ] } },
{ "type": "Feature", "properties": { "X": 132.4993068, "Y": 34.1767712, "Name": "旧田原小学校", "city_NAME": "呉市", "city_code": 34202, "kyusui_day": null, "kyusuiTIME": null, "page_day": "8月2日", "kaisi_day": null, "heisa_text": "閉鎖", "heisa_tag": 1, "tyosa_day": "9月13日", "tyousa_sya": "浅野", "URL": "https:\/\/www.city.kure.lg.jp\/site\/jougesui\/kinkyuu-dansui20180707-02.html" }, "geometry": { "type": "Point", "coordinates": [ 132.4993068, 34.1767712 ] } },
{ "type": "Feature", "properties": { "X": 132.5132596, "Y": 34.1904037, "Name": "旧渡子小学校", "city_NAME": "呉市", "city_code": 34202, "kyusui_day": null, "kyusuiTIME": null, "page_day": "8月2日", "kaisi_day": null, "heisa_text": "閉鎖", "heisa_tag": 1, "tyosa_day": "9月13日", "tyousa_sya": "浅野", "URL": "https:\/\/www.city.kure.lg.jp\/site\/jougesui\/kinkyuu-dansui20180707-02.html" }, "geometry": { "type": "Point", "coordinates": [ 132.5132596, 34.1904037 ] } },
{ "type": "Feature", "properties": { "X": 132.5439066, "Y": 34.2137452, "Name": "警固屋まちづくりセンター", "city_NAME": "呉市", "city_code": 34202, "kyusui_day": null, "kyusuiTIME": null, "page_day": "8月2日", "kaisi_day": null, "heisa_text": "閉鎖", "heisa_tag": 1, "tyosa_day": "9月13日", "tyousa_sya": "浅野", "URL": "https:\/\/www.city.kure.lg.jp\/site\/jougesui\/kinkyuu-dansui20180707-02.html" }, "geometry": { "type": "Point", "coordinates": [ 132.543906600000014, 34.2137452 ] } },
{ "type": "Feature", "properties": { "X": 132.5416616, "Y": 34.1993322, "Name": "警固屋中学校", "city_NAME": "呉市", "city_code": 34202, "kyusui_day": null, "kyusuiTIME": null, "page_day": "8月2日", "kaisi_day": null, "heisa_text": "閉鎖", "heisa_tag": 1, "tyosa_day": "9月13日", "tyousa_sya": "浅野", "URL": "https:\/\/www.city.kure.lg.jp\/site\/jougesui\/kinkyuu-dansui20180707-02.html" }, "geometry": { "type": "Point", "coordinates": [ 132.5416616, 34.1993322 ] } },
{ "type": "Feature", "properties": { "X": 132.5943898, "Y": 34.2299331, "Name": "県営阿賀住宅前（旧延崎小学校入口）", "city_NAME": "呉市", "city_code": 34202, "kyusui_day": null, "kyusuiTIME": null, "page_day": "8月2日", "kaisi_day": null, "heisa_text": "閉鎖", "heisa_tag": 1, "tyosa_day": "9月13日", "tyousa_sya": "浅野", "URL": "https:\/\/www.city.kure.lg.jp\/site\/jougesui\/kinkyuu-dansui20180707-02.html" }, "geometry": { "type": "Point", "coordinates": [ 132.594389799999988, 34.2299331 ] } },
{ "type": "Feature", "properties": { "X": 132.5945668, "Y": 34.2489825, "Name": "原小学校", "city_NAME": "呉市", "city_code": 34202, "kyusui_day": null, "kyusuiTIME": null, "page_day": "8月2日", "kaisi_day": null, "heisa_text": "閉鎖", "heisa_tag": 1, "tyosa_day": "9月13日", "tyousa_sya": "浅野", "URL": "https:\/\/www.city.kure.lg.jp\/site\/jougesui\/kinkyuu-dansui20180707-02.html" }, "geometry": { "type": "Point", "coordinates": [ 132.5945668, 34.2489825 ] } },
{ "type": "Feature", "properties": { "X": 132.5957309, "Y": 34.2165931, "Name": "呉港阿賀マリノポリス地区岸壁", "city_NAME": "呉市", "city_code": 34202, "kyusui_day": null, "kyusuiTIME": null, "page_day": "8月2日", "kaisi_day": null, "heisa_text": "閉鎖", "heisa_tag": 1, "tyosa_day": "9月13日", "tyousa_sya": "浅野", "URL": "https:\/\/www.city.kure.lg.jp\/site\/jougesui\/kinkyuu-dansui20180707-02.html" }, "geometry": { "type": "Point", "coordinates": [ 132.5957309, 34.2165931 ] } },
{ "type": "Feature", "properties": { "X": 132.5664277, "Y": 34.2006233, "Name": "呉市消防団大冠分団（阿賀南９丁目） ", "city_NAME": "呉市", "city_code": 34202, "kyusui_day": null, "kyusuiTIME": null, "page_day": "8月2日", "kaisi_day": null, "heisa_text": "閉鎖", "heisa_tag": 1, "tyosa_day": "9月13日", "tyousa_sya": "浅野", "URL": "https:\/\/www.city.kure.lg.jp\/site\/jougesui\/kinkyuu-dansui20180707-02.html" }, "geometry": { "type": "Point", "coordinates": [ 132.5664277, 34.2006233 ] } },
{ "type": "Feature", "properties": { "X": 132.5641412, "Y": 34.2497208, "Name": "呉市役所中央公園内", "city_NAME": "呉市", "city_code": 34202, "kyusui_day": null, "kyusuiTIME": null, "page_day": "8月2日", "kaisi_day": null, "heisa_text": "閉鎖", "heisa_tag": 1, "tyosa_day": "9月13日", "tyousa_sya": "浅野", "URL": "https:\/\/www.city.kure.lg.jp\/site\/jougesui\/kinkyuu-dansui20180707-02.html" }, "geometry": { "type": "Point", "coordinates": [ 132.5641412, 34.2497208 ] } },
{ "type": "Feature", "properties": { "X": 132.6268304, "Y": 34.2319955, "Name": "広公園（オークアリーナ）", "city_NAME": "呉市", "city_code": 34202, "kyusui_day": null, "kyusuiTIME": null, "page_day": "8月2日", "kaisi_day": null, "heisa_text": "閉鎖", "heisa_tag": 1, "tyosa_day": "9月13日", "tyousa_sya": "浅野", "URL": "https:\/\/www.city.kure.lg.jp\/site\/jougesui\/kinkyuu-dansui20180707-02.html" }, "geometry": { "type": "Point", "coordinates": [ 132.626830399999989, 34.2319955 ] } },
{ "type": "Feature", "properties": { "X": 132.614908, "Y": 34.2325321, "Name": "広市民センター", "city_NAME": "呉市", "city_code": 34202, "kyusui_day": null, "kyusuiTIME": null, "page_day": "8月2日", "kaisi_day": null, "heisa_text": "閉鎖", "heisa_tag": 1, "tyosa_day": "9月13日", "tyousa_sya": "浅野", "URL": "https:\/\/www.city.kure.lg.jp\/site\/jougesui\/kinkyuu-dansui20180707-02.html" }, "geometry": { "type": "Point", "coordinates": [ 132.614908, 34.2325321 ] } },
{ "type": "Feature", "properties": { "X": 132.6269437, "Y": 34.2386058, "Name": "広小学校", "city_NAME": "呉市", "city_code": 34202, "kyusui_day": null, "kyusuiTIME": null, "page_day": "8月2日", "kaisi_day": null, "heisa_text": "閉鎖", "heisa_tag": 1, "tyosa_day": "9月13日", "tyousa_sya": "浅野", "URL": "https:\/\/www.city.kure.lg.jp\/site\/jougesui\/kinkyuu-dansui20180707-02.html" }, "geometry": { "type": "Point", "coordinates": [ 132.6269437, 34.2386058 ] } },
{ "type": "Feature", "properties": { "X": 132.6211663, "Y": 34.220093, "Name": "広津久茂町７番付近（黄幡弾薬庫前）", "city_NAME": "呉市", "city_code": 34202, "kyusui_day": null, "kyusuiTIME": null, "page_day": "8月2日", "kaisi_day": null, "heisa_text": "閉鎖", "heisa_tag": 1, "tyosa_day": "9月13日", "tyousa_sya": "浅野", "URL": "https:\/\/www.city.kure.lg.jp\/site\/jougesui\/kinkyuu-dansui20180707-02.html" }, "geometry": { "type": "Point", "coordinates": [ 132.6211663, 34.220093 ] } },
{ "type": "Feature", "properties": { "X": 132.6237331, "Y": 34.2126162, "Name": "広南中学校", "city_NAME": "呉市", "city_code": 34202, "kyusui_day": null, "kyusuiTIME": null, "page_day": "8月2日", "kaisi_day": null, "heisa_text": "閉鎖", "heisa_tag": 1, "tyosa_day": "9月13日", "tyousa_sya": "浅野", "URL": "https:\/\/www.city.kure.lg.jp\/site\/jougesui\/kinkyuu-dansui20180707-02.html" }, "geometry": { "type": "Point", "coordinates": [ 132.62373310000001, 34.2126162 ] } },
{ "type": "Feature", "properties": { "X": 132.6304648, "Y": 34.2470126, "Name": "三坂地小学校", "city_NAME": "呉市", "city_code": 34202, "kyusui_day": null, "kyusuiTIME": null, "page_day": "8月2日", "kaisi_day": null, "heisa_text": "閉鎖", "heisa_tag": 1, "tyosa_day": "9月13日", "tyousa_sya": "浅野", "URL": "https:\/\/www.city.kure.lg.jp\/site\/jougesui\/kinkyuu-dansui20180707-02.html" }, "geometry": { "type": "Point", "coordinates": [ 132.6304648, 34.2470126 ] } },
{ "type": "Feature", "properties": { "X": 132.6786916, "Y": 34.2138661, "Name": "小仁方文化会館", "city_NAME": "呉市", "city_code": 34202, "kyusui_day": null, "kyusuiTIME": null, "page_day": "8月2日", "kaisi_day": null, "heisa_text": "閉鎖", "heisa_tag": 1, "tyosa_day": "9月13日", "tyousa_sya": "浅野", "URL": "https:\/\/www.city.kure.lg.jp\/site\/jougesui\/kinkyuu-dansui20180707-02.html" }, "geometry": { "type": "Point", "coordinates": [ 132.6786916, 34.2138661 ] } },
{ "type": "Feature", "properties": { "X": 132.6529518, "Y": 34.2065229, "Name": "小須磨公園", "city_NAME": "呉市", "city_code": 34202, "kyusui_day": null, "kyusuiTIME": null, "page_day": "8月2日", "kaisi_day": null, "heisa_text": "閉鎖", "heisa_tag": 1, "tyosa_day": "9月13日", "tyousa_sya": "浅野", "URL": "https:\/\/www.city.kure.lg.jp\/site\/jougesui\/kinkyuu-dansui20180707-02.html" }, "geometry": { "type": "Point", "coordinates": [ 132.652951800000011, 34.2065229 ] } },
{ "type": "Feature", "properties": { "X": 132.6481694, "Y": 34.2276445, "Name": "仁方神町自治会館", "city_NAME": "呉市", "city_code": 34202, "kyusui_day": null, "kyusuiTIME": null, "page_day": "8月2日", "kaisi_day": null, "heisa_text": "閉鎖", "heisa_tag": 1, "tyosa_day": "9月13日", "tyousa_sya": "浅野", "URL": "https:\/\/www.city.kure.lg.jp\/site\/jougesui\/kinkyuu-dansui20180707-02.html" }, "geometry": { "type": "Point", "coordinates": [ 132.6481694, 34.2276445 ] } },
{ "type": "Feature", "properties": { "X": 132.653802, "Y": 34.2207983, "Name": "仁方中学校", "city_NAME": "呉市", "city_code": 34202, "kyusui_day": null, "kyusuiTIME": null, "page_day": "8月2日", "kaisi_day": null, "heisa_text": "閉鎖", "heisa_tag": 1, "tyosa_day": "9月13日", "tyousa_sya": "浅野", "URL": "https:\/\/www.city.kure.lg.jp\/site\/jougesui\/kinkyuu-dansui20180707-02.html" }, "geometry": { "type": "Point", "coordinates": [ 132.653802, 34.2207983 ] } },
{ "type": "Feature", "properties": { "X": 132.4888663, "Y": 34.0917724, "Name": "須川老人集会所", "city_NAME": "呉市", "city_code": 34202, "kyusui_day": null, "kyusuiTIME": null, "page_day": "8月2日", "kaisi_day": null, "heisa_text": "閉鎖", "heisa_tag": 1, "tyosa_day": "9月13日", "tyousa_sya": "浅野", "URL": "https:\/\/www.city.kure.lg.jp\/site\/jougesui\/kinkyuu-dansui20180707-02.html" }, "geometry": { "type": "Point", "coordinates": [ 132.488866300000012, 34.0917724 ] } },
{ "type": "Feature", "properties": { "X": 132.6310435, "Y": 34.2657067, "Name": "石内公園", "city_NAME": "呉市", "city_code": 34202, "kyusui_day": null, "kyusuiTIME": null, "page_day": "8月2日", "kaisi_day": null, "heisa_text": "閉鎖", "heisa_tag": 1, "tyosa_day": "9月13日", "tyousa_sya": "浅野", "URL": "https:\/\/www.city.kure.lg.jp\/site\/jougesui\/kinkyuu-dansui20180707-02.html" }, "geometry": { "type": "Point", "coordinates": [ 132.6310435, 34.2657067 ] } },
{ "type": "Feature", "properties": { "X": 132.5437604, "Y": 34.0990711, "Name": "倉橋東センター", "city_NAME": "呉市", "city_code": 34202, "kyusui_day": null, "kyusuiTIME": null, "page_day": "8月2日", "kaisi_day": null, "heisa_text": "閉鎖", "heisa_tag": 1, "tyosa_day": "9月13日", "tyousa_sya": "浅野", "URL": "https:\/\/www.city.kure.lg.jp\/site\/jougesui\/kinkyuu-dansui20180707-02.html" }, "geometry": { "type": "Point", "coordinates": [ 132.5437604, 34.0990711 ] } },
{ "type": "Feature", "properties": { "X": 132.5554401, "Y": 34.1753066, "Name": "大浦崎スポーツセンター（音戸地区） ", "city_NAME": "呉市", "city_code": 34202, "kyusui_day": null, "kyusuiTIME": null, "page_day": "8月2日", "kaisi_day": null, "heisa_text": "閉鎖", "heisa_tag": 1, "tyosa_day": "9月13日", "tyousa_sya": "浅野", "URL": "https:\/\/www.city.kure.lg.jp\/site\/jougesui\/kinkyuu-dansui20180707-02.html" }, "geometry": { "type": "Point", "coordinates": [ 132.5554401, 34.1753066 ] } },
{ "type": "Feature", "properties": { "X": 132.6607288, "Y": 34.1751724, "Name": "大地蔵松風園（中央ロータリー）", "city_NAME": "呉市", "city_code": 34202, "kyusui_day": null, "kyusuiTIME": null, "page_day": "8月2日", "kaisi_day": null, "heisa_text": "閉鎖", "heisa_tag": 1, "tyosa_day": "9月13日", "tyousa_sya": "浅野", "URL": "https:\/\/www.city.kure.lg.jp\/site\/jougesui\/kinkyuu-dansui20180707-02.html" }, "geometry": { "type": "Point", "coordinates": [ 132.660728799999987, 34.1751724 ] } },
{ "type": "Feature", "properties": { "X": 132.5781704, "Y": 34.2495445, "Name": "長迫小学校", "city_NAME": "呉市", "city_code": 34202, "kyusui_day": null, "kyusuiTIME": null, "page_day": "8月2日", "kaisi_day": null, "heisa_text": "閉鎖", "heisa_tag": 1, "tyosa_day": "9月13日", "tyousa_sya": "浅野", "URL": "https:\/\/www.city.kure.lg.jp\/site\/jougesui\/kinkyuu-dansui20180707-02.html" }, "geometry": { "type": "Point", "coordinates": [ 132.5781704, 34.2495445 ] } },
{ "type": "Feature", "properties": { "X": 132.51793, "Y": 34.287419, "Name": "天応市民センター", "city_NAME": "呉市", "city_code": 34202, "kyusui_day": null, "kyusuiTIME": null, "page_day": "8月2日", "kaisi_day": null, "heisa_text": "閉鎖", "heisa_tag": 1, "tyosa_day": "9月13日", "tyousa_sya": "浅野", "URL": "https:\/\/www.city.kure.lg.jp\/site\/jougesui\/kinkyuu-dansui20180707-02.html" }, "geometry": { "type": "Point", "coordinates": [ 132.51793, 34.287419 ] } },
{ "type": "Feature", "properties": { "X": 132.5872551, "Y": 34.2530552, "Name": "東畑中学校", "city_NAME": "呉市", "city_code": 34202, "kyusui_day": null, "kyusuiTIME": null, "page_day": "8月2日", "kaisi_day": null, "heisa_text": "閉鎖", "heisa_tag": 1, "tyosa_day": "9月13日", "tyousa_sya": "浅野", "URL": "https:\/\/www.city.kure.lg.jp\/site\/jougesui\/kinkyuu-dansui20180707-02.html" }, "geometry": { "type": "Point", "coordinates": [ 132.5872551, 34.2530552 ] } },
{ "type": "Feature", "properties": { "X": 132.500499, "Y": 34.1283073, "Name": "藤三宇和木店", "city_NAME": "呉市", "city_code": 34202, "kyusui_day": null, "kyusuiTIME": null, "page_day": "8月2日", "kaisi_day": null, "heisa_text": "閉鎖", "heisa_tag": 1, "tyosa_day": "9月13日", "tyousa_sya": "浅野", "URL": "https:\/\/www.city.kure.lg.jp\/site\/jougesui\/kinkyuu-dansui20180707-02.html" }, "geometry": { "type": "Point", "coordinates": [ 132.500499, 34.1283073 ] } },
{ "type": "Feature", "properties": { "X": 132.545194, "Y": 34.1758381, "Name": "波多見小学校", "city_NAME": "呉市", "city_code": 34202, "kyusui_day": null, "kyusuiTIME": null, "page_day": "8月2日", "kaisi_day": null, "heisa_text": "閉鎖", "heisa_tag": 1, "tyosa_day": "9月13日", "tyousa_sya": "浅野", "URL": "https:\/\/www.city.kure.lg.jp\/site\/jougesui\/kinkyuu-dansui20180707-02.html" }, "geometry": { "type": "Point", "coordinates": [ 132.545194, 34.1758381 ] } },
{ "type": "Feature", "properties": { "X": 132.5327204, "Y": 34.1039106, "Name": "尾立生活改善センター", "city_NAME": "呉市", "city_code": 34202, "kyusui_day": null, "kyusuiTIME": null, "page_day": "8月2日", "kaisi_day": null, "heisa_text": "閉鎖", "heisa_tag": 1, "tyosa_day": "9月13日", "tyousa_sya": "浅野", "URL": "https:\/\/www.city.kure.lg.jp\/site\/jougesui\/kinkyuu-dansui20180707-02.html" }, "geometry": { "type": "Point", "coordinates": [ 132.532720399999988, 34.1039106 ] } },
{ "type": "Feature", "properties": { "X": 132.566189, "Y": 34.2543245, "Name": "片山中学校", "city_NAME": "呉市", "city_code": 34202, "kyusui_day": null, "kyusuiTIME": null, "page_day": "8月2日", "kaisi_day": null, "heisa_text": "閉鎖", "heisa_tag": 1, "tyosa_day": "9月13日", "tyousa_sya": "浅野", "URL": "https:\/\/www.city.kure.lg.jp\/site\/jougesui\/kinkyuu-dansui20180707-02.html" }, "geometry": { "type": "Point", "coordinates": [ 132.566189, 34.2543245 ] } },
{ "type": "Feature", "properties": { "X": 132.5089949, "Y": 34.1462687, "Name": "明徳小学校", "city_NAME": "呉市", "city_code": 34202, "kyusui_day": null, "kyusuiTIME": null, "page_day": "8月2日", "kaisi_day": null, "heisa_text": "閉鎖", "heisa_tag": 1, "tyosa_day": "9月13日", "tyousa_sya": "浅野", "URL": "https:\/\/www.city.kure.lg.jp\/site\/jougesui\/kinkyuu-dansui20180707-02.html" }, "geometry": { "type": "Point", "coordinates": [ 132.5089949, 34.1462687 ] } },
{ "type": "Feature", "properties": { "X": 132.576604, "Y": 34.2545739, "Name": "明立小学校", "city_NAME": "呉市", "city_code": 34202, "kyusui_day": null, "kyusuiTIME": null, "page_day": "8月2日", "kaisi_day": null, "heisa_text": "閉鎖", "heisa_tag": 1, "tyosa_day": "9月13日", "tyousa_sya": "浅野", "URL": "https:\/\/www.city.kure.lg.jp\/site\/jougesui\/kinkyuu-dansui20180707-02.html" }, "geometry": { "type": "Point", "coordinates": [ 132.576604, 34.2545739 ] } },
{ "type": "Feature", "properties": { "X": 132.5693473, "Y": 34.2419517, "Name": "和庄小学校", "city_NAME": "呉市", "city_code": 34202, "kyusui_day": null, "kyusuiTIME": null, "page_day": "8月2日", "kaisi_day": null, "heisa_text": "閉鎖", "heisa_tag": 1, "tyosa_day": "9月13日", "tyousa_sya": "浅野", "URL": "https:\/\/www.city.kure.lg.jp\/site\/jougesui\/kinkyuu-dansui20180707-02.html" }, "geometry": { "type": "Point", "coordinates": [ 132.5693473, 34.2419517 ] } },
{ "type": "Feature", "properties": { "X": 132.6859698, "Y": 34.2362819, "Name": "旧原山会館", "city_NAME": "呉市", "city_code": 34202, "kyusui_day": null, "kyusuiTIME": null, "page_day": "8月2日", "kaisi_day": null, "heisa_text": "8月2日閉鎖", "heisa_tag": 1, "tyosa_day": "9月13日", "tyousa_sya": "浅野", "URL": "https:\/\/www.city.kure.lg.jp\/site\/jougesui\/kinkyuu-dansui20180707-02.html" }, "geometry": { "type": "Point", "coordinates": [ 132.6859698, 34.2362819 ] } },
{ "type": "Feature", "properties": { "X": 132.6940834, "Y": 34.2311639, "Name": "川尻中学校グラウンド前", "city_NAME": "呉市", "city_code": 34202, "kyusui_day": null, "kyusuiTIME": null, "page_day": "8月2日", "kaisi_day": null, "heisa_text": "8月2日閉鎖", "heisa_tag": 1, "tyosa_day": "9月13日", "tyousa_sya": "浅野", "URL": "https:\/\/www.city.kure.lg.jp\/site\/jougesui\/kinkyuu-dansui20180707-02.html" }, "geometry": { "type": "Point", "coordinates": [ 132.694083400000011, 34.2311639 ] } },
{ "type": "Feature", "properties": { "X": 132.6976374, "Y": 34.2355235, "Name": "かわじり中央会館", "city_NAME": "呉市", "city_code": 34202, "kyusui_day": null, "kyusuiTIME": null, "page_day": "8月2日", "kaisi_day": null, "heisa_text": "8月2日閉鎖", "heisa_tag": 1, "tyosa_day": "9月13日", "tyousa_sya": "浅野", "URL": "https:\/\/www.city.kure.lg.jp\/site\/jougesui\/kinkyuu-dansui20180707-02.html" }, "geometry": { "type": "Point", "coordinates": [ 132.6976374, 34.2355235 ] } },
{ "type": "Feature", "properties": { "X": 132.6954393, "Y": 34.2407721, "Name": "久俊文化会館", "city_NAME": "呉市", "city_code": 34202, "kyusui_day": null, "kyusuiTIME": null, "page_day": "8月2日", "kaisi_day": null, "heisa_text": "8月2日閉鎖", "heisa_tag": 1, "tyosa_day": "9月13日", "tyousa_sya": "浅野", "URL": "https:\/\/www.city.kure.lg.jp\/site\/jougesui\/kinkyuu-dansui20180707-02.html" }, "geometry": { "type": "Point", "coordinates": [ 132.6954393, 34.2407721 ] } },
{ "type": "Feature", "properties": { "X": 132.7024224, "Y": 34.2369316, "Name": "川尻グラウンド", "city_NAME": "呉市", "city_code": 34202, "kyusui_day": null, "kyusuiTIME": null, "page_day": "8月2日", "kaisi_day": null, "heisa_text": "8月2日閉鎖", "heisa_tag": 1, "tyosa_day": "9月13日", "tyousa_sya": "浅野", "URL": "https:\/\/www.city.kure.lg.jp\/site\/jougesui\/kinkyuu-dansui20180707-02.html" }, "geometry": { "type": "Point", "coordinates": [ 132.702422399999989, 34.2369316 ] } },
{ "type": "Feature", "properties": { "X": 132.7183105, "Y": 34.2398985, "Name": "小用文化会館", "city_NAME": "呉市", "city_code": 34202, "kyusui_day": null, "kyusuiTIME": null, "page_day": "8月2日", "kaisi_day": null, "heisa_text": "8月2日閉鎖", "heisa_tag": 1, "tyosa_day": "9月13日", "tyousa_sya": "浅野", "URL": "https:\/\/www.city.kure.lg.jp\/site\/jougesui\/kinkyuu-dansui20180707-02.html" }, "geometry": { "type": "Point", "coordinates": [ 132.7183105, 34.2398985 ] } },
{ "type": "Feature", "properties": { "X": 132.69138, "Y": 34.23345, "Name": "森文化会館", "city_NAME": "呉市", "city_code": 34202, "kyusui_day": null, "kyusuiTIME": null, "page_day": "8月2日", "kaisi_day": null, "heisa_text": "8月2日閉鎖", "heisa_tag": 1, "tyosa_day": "9月13日", "tyousa_sya": "浅野", "URL": "https:\/\/www.city.kure.lg.jp\/site\/jougesui\/kinkyuu-dansui20180707-02.html" }, "geometry": { "type": "Point", "coordinates": [ 132.69138, 34.23345 ] } },
{ "type": "Feature", "properties": { "X": 132.69941, "Y": 34.23744, "Name": "まち文化会館", "city_NAME": "呉市", "city_code": 34202, "kyusui_day": null, "kyusuiTIME": null, "page_day": "8月2日", "kaisi_day": null, "heisa_text": "8月2日閉鎖", "heisa_tag": 1, "tyosa_day": "9月13日", "tyousa_sya": "浅野", "URL": "https:\/\/www.city.kure.lg.jp\/site\/jougesui\/kinkyuu-dansui20180707-02.html" }, "geometry": { "type": "Point", "coordinates": [ 132.69941, 34.23744 ] } },
{ "type": "Feature", "properties": { "X": 132.70059, "Y": 34.2424, "Name": "久筋公園", "city_NAME": "呉市", "city_code": 34202, "kyusui_day": null, "kyusuiTIME": null, "page_day": "8月2日", "kaisi_day": null, "heisa_text": "8月2日閉鎖", "heisa_tag": 1, "tyosa_day": "9月13日", "tyousa_sya": "浅野", "URL": "https:\/\/www.city.kure.lg.jp\/site\/jougesui\/kinkyuu-dansui20180707-02.html" }, "geometry": { "type": "Point", "coordinates": [ 132.70059, 34.2424 ] } },
{ "type": "Feature", "properties": { "X": 132.69251, "Y": 34.22975, "Name": "森・沖田地区コミュニティホーム", "city_NAME": "呉市", "city_code": 34202, "kyusui_day": null, "kyusuiTIME": null, "page_day": "8月2日", "kaisi_day": null, "heisa_text": "8月2日閉鎖", "heisa_tag": 1, "tyosa_day": "9月13日", "tyousa_sya": "浅野", "URL": "https:\/\/www.city.kure.lg.jp\/site\/jougesui\/kinkyuu-dansui20180707-02.html" }, "geometry": { "type": "Point", "coordinates": [ 132.69251, 34.22975 ] } },
{ "type": "Feature", "properties": { "X": 132.68952, "Y": 34.22783, "Name": "西の宮地区会館", "city_NAME": "呉市", "city_code": 34202, "kyusui_day": null, "kyusuiTIME": null, "page_day": "8月2日", "kaisi_day": null, "heisa_text": "8月2日閉鎖", "heisa_tag": 1, "tyosa_day": "9月13日", "tyousa_sya": "浅野", "URL": "https:\/\/www.city.kure.lg.jp\/site\/jougesui\/kinkyuu-dansui20180707-02.html" }, "geometry": { "type": "Point", "coordinates": [ 132.68952, 34.22783 ] } },
{ "type": "Feature", "properties": { "X": 132.69484, "Y": 34.23384, "Name": "川尻桟橋（所在未確定）", "city_NAME": "呉市", "city_code": 34202, "kyusui_day": null, "kyusuiTIME": null, "page_day": "8月2日", "kaisi_day": null, "heisa_text": "8月2日閉鎖", "heisa_tag": 1, "tyosa_day": "9月13日", "tyousa_sya": "浅野", "URL": "https:\/\/www.city.kure.lg.jp\/site\/jougesui\/kinkyuu-dansui20180707-02.html" }, "geometry": { "type": "Point", "coordinates": [ 132.69484, 34.23384 ] } },
{ "type": "Feature", "properties": { "X": 132.69423, "Y": 34.23751, "Name": "川尻小学校下駐車場", "city_NAME": "呉市", "city_code": 34202, "kyusui_day": null, "kyusuiTIME": null, "page_day": "8月2日", "kaisi_day": null, "heisa_text": "8月2日閉鎖", "heisa_tag": 1, "tyosa_day": "9月13日", "tyousa_sya": "浅野", "URL": "https:\/\/www.city.kure.lg.jp\/site\/jougesui\/kinkyuu-dansui20180707-02.html" }, "geometry": { "type": "Point", "coordinates": [ 132.69423, 34.23751 ] } },
{ "type": "Feature", "properties": { "X": 132.6905, "Y": 34.23544, "Name": "中原公園", "city_NAME": "呉市", "city_code": 34202, "kyusui_day": null, "kyusuiTIME": null, "page_day": "8月2日", "kaisi_day": null, "heisa_text": "8月2日閉鎖", "heisa_tag": 1, "tyosa_day": "9月13日", "tyousa_sya": "浅野", "URL": "https:\/\/www.city.kure.lg.jp\/site\/jougesui\/kinkyuu-dansui20180707-02.html" }, "geometry": { "type": "Point", "coordinates": [ 132.6905, 34.23544 ] } },
{ "type": "Feature", "properties": { "X": 132.70168, "Y": 34.23737, "Name": "川尻保健出張所", "city_NAME": "呉市", "city_code": 34202, "kyusui_day": null, "kyusuiTIME": null, "page_day": "8月2日", "kaisi_day": null, "heisa_text": "8月2日閉鎖", "heisa_tag": 1, "tyosa_day": "9月13日", "tyousa_sya": "浅野", "URL": "https:\/\/www.city.kure.lg.jp\/site\/jougesui\/kinkyuu-dansui20180707-02.html" }, "geometry": { "type": "Point", "coordinates": [ 132.70168, 34.23737 ] } },
{ "type": "Feature", "properties": { "X": 132.69113, "Y": 34.23976, "Name": "旧斎場駐車場（所在未確定）", "city_NAME": "呉市", "city_code": 34202, "kyusui_day": null, "kyusuiTIME": null, "page_day": "8月2日", "kaisi_day": null, "heisa_text": "8月2日閉鎖", "heisa_tag": 1, "tyosa_day": "9月13日", "tyousa_sya": "浅野", "URL": "https:\/\/www.city.kure.lg.jp\/site\/jougesui\/kinkyuu-dansui20180707-02.html" }, "geometry": { "type": "Point", "coordinates": [ 132.69113, 34.23976 ] } },
{ "type": "Feature", "properties": { "X": 132.69781, "Y": 34.23492, "Name": "川尻漁業協同組合", "city_NAME": "呉市", "city_code": 34202, "kyusui_day": null, "kyusuiTIME": null, "page_day": "8月2日", "kaisi_day": null, "heisa_text": "8月2日閉鎖", "heisa_tag": 1, "tyosa_day": "9月13日", "tyousa_sya": "浅野", "URL": "https:\/\/www.city.kure.lg.jp\/site\/jougesui\/kinkyuu-dansui20180707-02.html" }, "geometry": { "type": "Point", "coordinates": [ 132.69781, 34.23492 ] } },
{ "type": "Feature", "properties": { "X": 132.8899276, "Y": 34.3906828, "Name": "賀茂川中学校", "city_NAME": "竹原市", "city_code": 34203, "kyusui_day": null, "kyusuiTIME": null, "page_day": "8月4日", "kaisi_day": null, "heisa_text": "7月19日21時閉鎖", "heisa_tag": 1, "tyosa_day": "9月13日", "tyousa_sya": "浅野", "URL": "http:\/\/www.city.takehara.lg.jp\/soumu\/bousai\/saigaijoho.html" }, "geometry": { "type": "Point", "coordinates": [ 132.8899276, 34.3906828 ] } },
{ "type": "Feature", "properties": { "X": 132.84744, "Y": 34.37597, "Name": "仁賀小学校　体育館", "city_NAME": "竹原市", "city_code": 34203, "kyusui_day": null, "kyusuiTIME": null, "page_day": "8月4日", "kaisi_day": null, "heisa_text": "7月25日21時閉鎖", "heisa_tag": 1, "tyosa_day": "9月13日", "tyousa_sya": "浅野", "URL": "http:\/\/www.city.takehara.lg.jp\/soumu\/bousai\/saigaijoho.html" }, "geometry": { "type": "Point", "coordinates": [ 132.84744, 34.37597 ] } },
{ "type": "Feature", "properties": { "X": 132.8871918, "Y": 34.3962957, "Name": "荘野小学校", "city_NAME": "竹原市", "city_code": 34203, "kyusui_day": null, "kyusuiTIME": null, "page_day": "8月4日", "kaisi_day": null, "heisa_text": "7月19日21時閉鎖", "heisa_tag": 1, "tyosa_day": "9月13日", "tyousa_sya": "浅野", "URL": "http:\/\/www.city.takehara.lg.jp\/soumu\/bousai\/saigaijoho.html" }, "geometry": { "type": "Point", "coordinates": [ 132.887191800000011, 34.3962957 ] } },
{ "type": "Feature", "properties": { "X": 132.8826213, "Y": 34.3728588, "Name": "東野小学校", "city_NAME": "竹原市", "city_code": 34203, "kyusui_day": null, "kyusuiTIME": null, "page_day": "8月4日", "kaisi_day": null, "heisa_text": "7月19日21時閉鎖", "heisa_tag": 1, "tyosa_day": "9月13日", "tyousa_sya": "浅野", "URL": "http:\/\/www.city.takehara.lg.jp\/soumu\/bousai\/saigaijoho.html" }, "geometry": { "type": "Point", "coordinates": [ 132.882621300000011, 34.3728588 ] } },
{ "type": "Feature", "properties": { "X": 132.89293, "Y": 34.40286, "Name": "国道432号沿い葛子古墳向側　太陽光パネル敷地入口", "city_NAME": "竹原市", "city_code": 34203, "kyusui_day": null, "kyusuiTIME": null, "page_day": "8月4日", "kaisi_day": "7月20日", "heisa_text": "7月31日閉鎖", "heisa_tag": 1, "tyosa_day": "9月13日", "tyousa_sya": "浅野", "URL": "http:\/\/www.city.takehara.lg.jp\/soumu\/bousai\/saigaijoho.html" }, "geometry": { "type": "Point", "coordinates": [ 132.89293, 34.40286 ] } },
{ "type": "Feature", "properties": { "X": 132.92115, "Y": 34.36898, "Name": "小梨公民館", "city_NAME": "竹原市", "city_code": 34203, "kyusui_day": null, "kyusuiTIME": null, "page_day": "8月4日", "kaisi_day": null, "heisa_text": "7月24日21時閉鎖", "heisa_tag": 1, "tyosa_day": "9月13日", "tyousa_sya": "浅野", "URL": "http:\/\/www.city.takehara.lg.jp\/soumu\/bousai\/saigaijoho.html" }, "geometry": { "type": "Point", "coordinates": [ 132.92115, 34.36898 ] } },
{ "type": "Feature", "properties": { "X": 132.84593, "Y": 34.37621, "Name": "仁賀ダム多目的広場", "city_NAME": "竹原市", "city_code": 34203, "kyusui_day": null, "kyusuiTIME": null, "page_day": "8月4日", "kaisi_day": null, "heisa_text": "7月28日17時閉鎖", "heisa_tag": 1, "tyosa_day": "9月13日", "tyousa_sya": "浅野", "URL": "http:\/\/www.city.takehara.lg.jp\/soumu\/bousai\/saigaijoho.html" }, "geometry": { "type": "Point", "coordinates": [ 132.84593, 34.37621 ] } },
{ "type": "Feature", "properties": { "X": 132.86562, "Y": 34.39706, "Name": "西野集会所横　広場", "city_NAME": "竹原市", "city_code": 34203, "kyusui_day": null, "kyusuiTIME": null, "page_day": "8月4日", "kaisi_day": null, "heisa_text": "7月24日21時閉鎖", "heisa_tag": 1, "tyosa_day": "9月13日", "tyousa_sya": "浅野", "URL": "http:\/\/www.city.takehara.lg.jp\/soumu\/bousai\/saigaijoho.html" }, "geometry": { "type": "Point", "coordinates": [ 132.86562, 34.39706 ] } },
{ "type": "Feature", "properties": { "X": 132.82835, "Y": 34.40833, "Name": "田万里公民館", "city_NAME": "竹原市", "city_code": 34203, "kyusui_day": null, "kyusuiTIME": null, "page_day": "8月4日", "kaisi_day": null, "heisa_text": "8月4日15時閉鎖", "heisa_tag": 1, "tyosa_day": "9月13日", "tyousa_sya": "浅野", "URL": "http:\/\/www.city.takehara.lg.jp\/soumu\/bousai\/saigaijoho.html" }, "geometry": { "type": "Point", "coordinates": [ 132.82835, 34.40833 ] } },
{ "type": "Feature", "properties": { "X": 132.84195, "Y": 34.40816, "Name": "田万里生活改善センター前", "city_NAME": "竹原市", "city_code": 34203, "kyusui_day": null, "kyusuiTIME": null, "page_day": "8月4日", "kaisi_day": null, "heisa_text": "8月01日閉鎖", "heisa_tag": 1, "tyosa_day": "9月13日", "tyousa_sya": "浅野", "URL": "http:\/\/www.city.takehara.lg.jp\/soumu\/bousai\/saigaijoho.html" }, "geometry": { "type": "Point", "coordinates": [ 132.84195, 34.40816 ] } },
{ "type": "Feature", "properties": { "X": 132.87481, "Y": 34.39747, "Name": "エネオスウイング広島東ＴＳ北側　市道横大道大橋線沿い広場", "city_NAME": "竹原市", "city_code": 34203, "kyusui_day": null, "kyusuiTIME": null, "page_day": "8月4日", "kaisi_day": "7月23日", "heisa_text": "8月01日閉鎖", "heisa_tag": 1, "tyosa_day": "9月13日", "tyousa_sya": "浅野", "URL": "http:\/\/www.city.takehara.lg.jp\/soumu\/bousai\/saigaijoho.html" }, "geometry": { "type": "Point", "coordinates": [ 132.87481, 34.39747 ] } },
{ "type": "Feature", "properties": { "X": 132.87177, "Y": 34.39027, "Name": "湯坂集会所横　広場", "city_NAME": "竹原市", "city_code": 34203, "kyusui_day": null, "kyusuiTIME": null, "page_day": "8月4日", "kaisi_day": null, "heisa_text": "7月22日閉鎖", "heisa_tag": 1, "tyosa_day": "9月13日", "tyousa_sya": "浅野", "URL": "http:\/\/www.city.takehara.lg.jp\/soumu\/bousai\/saigaijoho.html" }, "geometry": { "type": "Point", "coordinates": [ 132.87177, 34.39027 ] } },
{ "type": "Feature", "properties": { "X": 132.82936, "Y": 34.40698, "Name": "有限会社　北条産業運輸前", "city_NAME": "竹原市", "city_code": 34203, "kyusui_day": null, "kyusuiTIME": null, "page_day": "8月4日", "kaisi_day": "7月20日", "heisa_text": "8月4日15時閉鎖", "heisa_tag": 1, "tyosa_day": "9月13日", "tyousa_sya": "浅野", "URL": "http:\/\/www.city.takehara.lg.jp\/soumu\/bousai\/saigaijoho.html" }, "geometry": { "type": "Point", "coordinates": [ 132.82936, 34.40698 ] } },
{ "type": "Feature", "properties": { "X": 132.89776, "Y": 34.41965, "Name": "枌谷集会所", "city_NAME": "竹原市", "city_code": 34203, "kyusui_day": null, "kyusuiTIME": null, "page_day": "8月4日", "kaisi_day": "8月1日", "heisa_text": "8月4日15時閉鎖", "heisa_tag": 1, "tyosa_day": "9月13日", "tyousa_sya": "浅野", "URL": "http:\/\/www.city.takehara.lg.jp\/soumu\/bousai\/saigaijoho.html" }, "geometry": { "type": "Point", "coordinates": [ 132.89776, 34.41965 ] } },
{ "type": "Feature", "properties": { "X": 133.0364406, "Y": 34.3385195, "Name": "幸崎中学校", "city_NAME": "三原市", "city_code": 34204, "kyusui_day": null, "kyusuiTIME": null, "page_day": "8月2日", "kaisi_day": null, "heisa_text": "閉鎖", "heisa_tag": 1, "tyosa_day": "9月13日", "tyousa_sya": "浅野", "URL": "http:\/\/www.city.mihara.hiroshima.jp\/site\/goujoho\/suidojyokyo.html" }, "geometry": { "type": "Point", "coordinates": [ 133.0364406, 34.3385195 ] } },
{ "type": "Feature", "properties": { "X": 132.9384444, "Y": 34.38626944, "Name": "広島県動物愛護センター", "city_NAME": "三原市", "city_code": 34204, "kyusui_day": null, "kyusuiTIME": null, "page_day": "8月2日", "kaisi_day": null, "heisa_text": "閉鎖", "heisa_tag": 1, "tyosa_day": "9月13日", "tyousa_sya": "浅野", "URL": "http:\/\/www.city.mihara.hiroshima.jp\/site\/goujoho\/suidojyokyo.html" }, "geometry": { "type": "Point", "coordinates": [ 132.9384444, 34.38626944 ] } },
{ "type": "Feature", "properties": { "X": 132.9821528, "Y": 34.38366389, "Name": "三原西部工業団地（惣定地区）シャープ(株)入口敷地", "city_NAME": "三原市", "city_code": 34204, "kyusui_day": null, "kyusuiTIME": null, "page_day": "8月2日", "kaisi_day": null, "heisa_text": "閉鎖", "heisa_tag": 1, "tyosa_day": "9月13日", "tyousa_sya": "浅野", "URL": "http:\/\/www.city.mihara.hiroshima.jp\/site\/goujoho\/suidojyokyo.html" }, "geometry": { "type": "Point", "coordinates": [ 132.9821528, 34.38366389 ] } },
{ "type": "Feature", "properties": { "X": 132.9754722, "Y": 34.37339722, "Name": "三原特別支援学校", "city_NAME": "三原市", "city_code": 34204, "kyusui_day": null, "kyusuiTIME": null, "page_day": "8月2日", "kaisi_day": null, "heisa_text": "閉鎖", "heisa_tag": 1, "tyosa_day": "9月13日", "tyousa_sya": "浅野", "URL": "http:\/\/www.city.mihara.hiroshima.jp\/site\/goujoho\/suidojyokyo.html" }, "geometry": { "type": "Point", "coordinates": [ 132.975472200000013, 34.37339722 ] } },
{ "type": "Feature", "properties": { "X": 133.1116417, "Y": 34.3884583, "Name": "糸崎港", "city_NAME": "三原市", "city_code": 34204, "kyusui_day": null, "kyusuiTIME": null, "page_day": "8月2日", "kaisi_day": null, "heisa_text": "閉鎖", "heisa_tag": 1, "tyosa_day": "9月13日", "tyousa_sya": "浅野", "URL": "http:\/\/www.city.mihara.hiroshima.jp\/site\/goujoho\/suidojyokyo.html" }, "geometry": { "type": "Point", "coordinates": [ 133.1116417, 34.3884583 ] } },
{ "type": "Feature", "properties": { "X": 133.0833055, "Y": 34.3653303, "Name": "須波小学校", "city_NAME": "三原市", "city_code": 34204, "kyusui_day": null, "kyusuiTIME": null, "page_day": "8月2日", "kaisi_day": null, "heisa_text": "閉鎖", "heisa_tag": 1, "tyosa_day": "9月13日", "tyousa_sya": "浅野", "URL": "http:\/\/www.city.mihara.hiroshima.jp\/site\/goujoho\/suidojyokyo.html" }, "geometry": { "type": "Point", "coordinates": [ 133.0833055, 34.3653303 ] } },
{ "type": "Feature", "properties": { "X": 133.0786613, "Y": 34.353894, "Name": "第四中学校", "city_NAME": "三原市", "city_code": 34204, "kyusui_day": null, "kyusuiTIME": null, "page_day": "8月2日", "kaisi_day": null, "heisa_text": "閉鎖", "heisa_tag": 1, "tyosa_day": "9月13日", "tyousa_sya": "浅野", "URL": "http:\/\/www.city.mihara.hiroshima.jp\/site\/goujoho\/suidojyokyo.html" }, "geometry": { "type": "Point", "coordinates": [ 133.0786613, 34.353894 ] } },
{ "type": "Feature", "properties": { "X": 133.0964389, "Y": 34.4101693, "Name": "第二中学校", "city_NAME": "三原市", "city_code": 34204, "kyusui_day": null, "kyusuiTIME": null, "page_day": "8月2日", "kaisi_day": null, "heisa_text": "閉鎖", "heisa_tag": 1, "tyosa_day": "9月13日", "tyousa_sya": "浅野", "URL": "http:\/\/www.city.mihara.hiroshima.jp\/site\/goujoho\/suidojyokyo.html" }, "geometry": { "type": "Point", "coordinates": [ 133.09643890000001, 34.4101693 ] } },
{ "type": "Feature", "properties": { "X": 132.9780889, "Y": 34.41488333, "Name": "本郷浄水場", "city_NAME": "三原市", "city_code": 34204, "kyusui_day": null, "kyusuiTIME": null, "page_day": "8月2日", "kaisi_day": null, "heisa_text": "閉鎖", "heisa_tag": 1, "tyosa_day": "9月13日", "tyousa_sya": "浅野", "URL": "http:\/\/www.city.mihara.hiroshima.jp\/site\/goujoho\/suidojyokyo.html" }, "geometry": { "type": "Point", "coordinates": [ 132.978088899999989, 34.41488333 ] } },
{ "type": "Feature", "properties": { "X": 133.0683763, "Y": 34.344643, "Name": "さざなみ学校", "city_NAME": "三原市", "city_code": 34204, "kyusui_day": null, "kyusuiTIME": null, "page_day": "8月2日", "kaisi_day": null, "heisa_text": "7月21日閉鎖", "heisa_tag": 1, "tyosa_day": "9月13日", "tyousa_sya": "浅野", "URL": "http:\/\/www.city.mihara.hiroshima.jp\/site\/goujoho\/suidojyokyo.html" }, "geometry": { "type": "Point", "coordinates": [ 133.068376300000011, 34.344643 ] } },
{ "type": "Feature", "properties": { "X": 133.0916914, "Y": 34.3824243, "Name": "貝野岸壁", "city_NAME": "三原市", "city_code": 34204, "kyusui_day": null, "kyusuiTIME": null, "page_day": "8月2日", "kaisi_day": null, "heisa_text": "7月21日閉鎖", "heisa_tag": 1, "tyosa_day": "9月13日", "tyousa_sya": "浅野", "URL": "http:\/\/www.city.mihara.hiroshima.jp\/site\/goujoho\/suidojyokyo.html" }, "geometry": { "type": "Point", "coordinates": [ 133.0916914, 34.3824243 ] } },
{ "type": "Feature", "properties": { "X": 133.02128, "Y": 34.47474, "Name": "久井町土取（コミュニティーホーム）", "city_NAME": "三原市", "city_code": 34204, "kyusui_day": null, "kyusuiTIME": null, "page_day": "8月2日", "kaisi_day": null, "heisa_text": "7月23日閉鎖", "heisa_tag": 1, "tyosa_day": "9月13日", "tyousa_sya": "浅野", "URL": "http:\/\/www.city.mihara.hiroshima.jp\/site\/goujoho\/suidojyokyo.html" }, "geometry": { "type": "Point", "coordinates": [ 133.02128, 34.47474 ] } },
{ "type": "Feature", "properties": { "X": 133.0137222, "Y": 34.34679444, "Name": "旧渡瀬小学校グランド", "city_NAME": "三原市", "city_code": 34204, "kyusui_day": null, "kyusuiTIME": null, "page_day": "8月2日", "kaisi_day": null, "heisa_text": "7月21日閉鎖", "heisa_tag": 1, "tyosa_day": "9月13日", "tyousa_sya": "浅野", "URL": "http:\/\/www.city.mihara.hiroshima.jp\/site\/goujoho\/suidojyokyo.html" }, "geometry": { "type": "Point", "coordinates": [ 133.013722199999989, 34.34679444 ] } },
{ "type": "Feature", "properties": { "X": 133.0806472, "Y": 34.39823056, "Name": "三原港フェリー乗り場　西側岸壁", "city_NAME": "三原市", "city_code": 34204, "kyusui_day": null, "kyusuiTIME": null, "page_day": "8月2日", "kaisi_day": null, "heisa_text": "7月23日閉鎖", "heisa_tag": 1, "tyosa_day": "9月13日", "tyousa_sya": "浅野", "URL": "http:\/\/www.city.mihara.hiroshima.jp\/site\/goujoho\/suidojyokyo.html" }, "geometry": { "type": "Point", "coordinates": [ 133.080647199999987, 34.39823056 ] } },
{ "type": "Feature", "properties": { "X": 133.11515, "Y": 34.3832964, "Name": "糸碕神社前埋立地", "city_NAME": "三原市", "city_code": 34204, "kyusui_day": null, "kyusuiTIME": null, "page_day": "8月2日", "kaisi_day": null, "heisa_text": "7月21日閉鎖", "heisa_tag": 1, "tyosa_day": "9月13日", "tyousa_sya": "浅野", "URL": "http:\/\/www.city.mihara.hiroshima.jp\/site\/goujoho\/suidojyokyo.html" }, "geometry": { "type": "Point", "coordinates": [ 133.11515, 34.3832964 ] } },
{ "type": "Feature", "properties": { "X": 133.0570292, "Y": 34.4141258, "Name": "西野浄水場", "city_NAME": "三原市", "city_code": 34204, "kyusui_day": null, "kyusuiTIME": null, "page_day": "8月2日", "kaisi_day": null, "heisa_text": "7月31日閉鎖", "heisa_tag": 1, "tyosa_day": "9月13日", "tyousa_sya": "浅野", "URL": "http:\/\/www.city.mihara.hiroshima.jp\/site\/goujoho\/suidojyokyo.html" }, "geometry": { "type": "Point", "coordinates": [ 133.057029199999988, 34.4141258 ] } },
{ "type": "Feature", "properties": { "X": 132.9661587, "Y": 34.4308337, "Name": "船木ふれあいセンター隣", "city_NAME": "三原市", "city_code": 34204, "kyusui_day": null, "kyusuiTIME": null, "page_day": "8月2日", "kaisi_day": null, "heisa_text": "7月26日閉鎖", "heisa_tag": 1, "tyosa_day": "9月13日", "tyousa_sya": "浅野", "URL": "http:\/\/www.city.mihara.hiroshima.jp\/site\/goujoho\/suidojyokyo.html" }, "geometry": { "type": "Point", "coordinates": [ 132.9661587, 34.4308337 ] } },
{ "type": "Feature", "properties": { "X": 132.9872778, "Y": 34.40845556, "Name": "総合技術高等学校", "city_NAME": "三原市", "city_code": 34204, "kyusui_day": null, "kyusuiTIME": null, "page_day": "8月2日", "kaisi_day": null, "heisa_text": "7月26日閉鎖", "heisa_tag": 1, "tyosa_day": "9月13日", "tyousa_sya": "浅野", "URL": "http:\/\/www.city.mihara.hiroshima.jp\/site\/goujoho\/suidojyokyo.html" }, "geometry": { "type": "Point", "coordinates": [ 132.987277799999987, 34.40845556 ] } },
{ "type": "Feature", "properties": { "X": 132.9211311, "Y": 34.5138779, "Name": "大和（和木公民館）", "city_NAME": "三原市", "city_code": 34204, "kyusui_day": null, "kyusuiTIME": null, "page_day": "8月2日", "kaisi_day": null, "heisa_text": "7月21日閉鎖", "heisa_tag": 1, "tyosa_day": "9月13日", "tyousa_sya": "浅野", "URL": "http:\/\/www.city.mihara.hiroshima.jp\/site\/goujoho\/suidojyokyo.html" }, "geometry": { "type": "Point", "coordinates": [ 132.9211311, 34.5138779 ] } },
{ "type": "Feature", "properties": { "X": 132.98531, "Y": 34.41412, "Name": "中岡集会所（本郷北四丁目）", "city_NAME": "三原市", "city_code": 34204, "kyusui_day": null, "kyusuiTIME": null, "page_day": "8月2日", "kaisi_day": null, "heisa_text": "7月23日閉鎖", "heisa_tag": 1, "tyosa_day": "9月13日", "tyousa_sya": "浅野", "URL": "http:\/\/www.city.mihara.hiroshima.jp\/site\/goujoho\/suidojyokyo.html" }, "geometry": { "type": "Point", "coordinates": [ 132.98531, 34.41412 ] } },
{ "type": "Feature", "properties": { "X": 132.9565094, "Y": 34.3953429, "Name": "南方コミュニティセンター", "city_NAME": "三原市", "city_code": 34204, "kyusui_day": null, "kyusuiTIME": null, "page_day": "8月2日", "kaisi_day": null, "heisa_text": "7月29日閉鎖", "heisa_tag": 1, "tyosa_day": "9月13日", "tyousa_sya": "浅野", "URL": "http:\/\/www.city.mihara.hiroshima.jp\/site\/goujoho\/suidojyokyo.html" }, "geometry": { "type": "Point", "coordinates": [ 132.956509399999987, 34.3953429 ] } },
{ "type": "Feature", "properties": { "X": 132.9419035, "Y": 34.413577, "Name": "北方コミュニティセンター", "city_NAME": "三原市", "city_code": 34204, "kyusui_day": null, "kyusuiTIME": null, "page_day": "8月2日", "kaisi_day": null, "heisa_text": "7月26日閉鎖", "heisa_tag": 1, "tyosa_day": "9月13日", "tyousa_sya": "浅野", "URL": "http:\/\/www.city.mihara.hiroshima.jp\/site\/goujoho\/suidojyokyo.html" }, "geometry": { "type": "Point", "coordinates": [ 132.9419035, 34.413577 ] } },
{ "type": "Feature", "properties": { "X": 132.9802175, "Y": 34.4087077, "Name": "本郷公民館", "city_NAME": "三原市", "city_code": 34204, "kyusui_day": null, "kyusuiTIME": null, "page_day": "8月2日", "kaisi_day": null, "heisa_text": "7月23日閉鎖", "heisa_tag": 1, "tyosa_day": "9月13日", "tyousa_sya": "浅野", "URL": "http:\/\/www.city.mihara.hiroshima.jp\/site\/goujoho\/suidojyokyo.html" }, "geometry": { "type": "Point", "coordinates": [ 132.9802175, 34.4087077 ] } },
{ "type": "Feature", "properties": { "X": 132.9833597, "Y": 34.4104016, "Name": "本郷生涯学習センター", "city_NAME": "三原市", "city_code": 34204, "kyusui_day": null, "kyusuiTIME": null, "page_day": "8月2日", "kaisi_day": null, "heisa_text": "7月30日閉鎖", "heisa_tag": 1, "tyosa_day": "9月13日", "tyousa_sya": "浅野", "URL": "http:\/\/www.city.mihara.hiroshima.jp\/site\/goujoho\/suidojyokyo.html" }, "geometry": { "type": "Point", "coordinates": [ 132.9833597, 34.4104016 ] } },
{ "type": "Feature", "properties": { "X": 133.010973, "Y": 34.4074789, "Name": "本郷団地内 あおぞら公園", "city_NAME": "三原市", "city_code": 34204, "kyusui_day": null, "kyusuiTIME": null, "page_day": "8月2日", "kaisi_day": null, "heisa_text": "7月21日閉鎖", "heisa_tag": 1, "tyosa_day": "9月13日", "tyousa_sya": "浅野", "URL": "http:\/\/www.city.mihara.hiroshima.jp\/site\/goujoho\/suidojyokyo.html" }, "geometry": { "type": "Point", "coordinates": [ 133.010973, 34.4074789 ] } },
{ "type": "Feature", "properties": { "X": 132.9669805, "Y": 34.40709444, "Name": "本郷中学校", "city_NAME": "三原市", "city_code": 34204, "kyusui_day": null, "kyusuiTIME": null, "page_day": "8月2日", "kaisi_day": null, "heisa_text": "7月24日閉鎖", "heisa_tag": 1, "tyosa_day": "9月13日", "tyousa_sya": "浅野", "URL": "http:\/\/www.city.mihara.hiroshima.jp\/site\/goujoho\/suidojyokyo.html" }, "geometry": { "type": "Point", "coordinates": [ 132.9669805, 34.40709444 ] } },
{ "type": "Feature", "properties": { "X": 133.1563099, "Y": 34.3979169, "Name": "木原（上福地バス停前）", "city_NAME": "三原市", "city_code": 34204, "kyusui_day": null, "kyusuiTIME": null, "page_day": "8月2日", "kaisi_day": null, "heisa_text": "7月30日閉鎖", "heisa_tag": 1, "tyosa_day": "9月13日", "tyousa_sya": "浅野", "URL": "http:\/\/www.city.mihara.hiroshima.jp\/site\/goujoho\/suidojyokyo.html" }, "geometry": { "type": "Point", "coordinates": [ 133.1563099, 34.3979169 ] } },
{ "type": "Feature", "properties": { "X": 133.11662, "Y": 34.35367, "Name": "三百団地集会所南", "city_NAME": "三原市", "city_code": 34204, "kyusui_day": null, "kyusuiTIME": null, "page_day": "8月2日", "kaisi_day": null, "heisa_text": "7月25日閉鎖", "heisa_tag": 1, "tyosa_day": "9月13日", "tyousa_sya": "浅野", "URL": "http:\/\/www.city.mihara.hiroshima.jp\/site\/goujoho\/suidojyokyo.html" }, "geometry": { "type": "Point", "coordinates": [ 133.11662, 34.35367 ] } },
{ "type": "Feature", "properties": { "X": 133.1771, "Y": 34.29026, "Name": "旧土生小学校", "city_NAME": "尾道市", "city_code": 34205, "kyusui_day": null, "kyusuiTIME": null, "page_day": "8月2日17:00", "kaisi_day": "7月15日", "heisa_text": "7月18日21時閉鎖", "heisa_tag": 1, "tyosa_day": "9月13日", "tyousa_sya": "浅野", "URL": "http:\/\/www.city.onomichi.hiroshima.jp\/soshiki\/65\/20574.html" }, "geometry": { "type": "Point", "coordinates": [ 133.1771, 34.29026 ] } },
{ "type": "Feature", "properties": { "X": 133.1705403, "Y": 34.296012, "Name": "芸予文化情報センター", "city_NAME": "尾道市", "city_code": 34205, "kyusui_day": null, "kyusuiTIME": null, "page_day": "8月2日17:00", "kaisi_day": null, "heisa_text": "7月19日21時閉鎖", "heisa_tag": 1, "tyosa_day": "9月13日", "tyousa_sya": "浅野", "URL": "http:\/\/www.city.onomichi.hiroshima.jp\/soshiki\/65\/20574.html" }, "geometry": { "type": "Point", "coordinates": [ 133.1705403, 34.296012 ] } },
{ "type": "Feature", "properties": { "X": 133.1455207, "Y": 34.5107738, "Name": "御調支所", "city_NAME": "尾道市", "city_code": 34205, "kyusui_day": null, "kyusuiTIME": null, "page_day": "8月2日17:00", "kaisi_day": null, "heisa_text": "7月20日21時閉鎖", "heisa_tag": 1, "tyosa_day": "9月13日", "tyousa_sya": "浅野", "URL": "http:\/\/www.city.onomichi.hiroshima.jp\/soshiki\/65\/20574.html" }, "geometry": { "type": "Point", "coordinates": [ 133.1455207, 34.5107738 ] } },
{ "type": "Feature", "properties": { "X": 133.185271, "Y": 34.3814658, "Name": "向島運動公園", "city_NAME": "尾道市", "city_code": 34205, "kyusui_day": null, "kyusuiTIME": null, "page_day": "8月2日17:00", "kaisi_day": null, "heisa_text": "7月19日21時閉鎖", "heisa_tag": 1, "tyosa_day": "9月13日", "tyousa_sya": "浅野", "URL": "http:\/\/www.city.onomichi.hiroshima.jp\/soshiki\/65\/20574.html" }, "geometry": { "type": "Point", "coordinates": [ 133.185271, 34.3814658 ] } },
{ "type": "Feature", "properties": { "X": 133.19403, "Y": 34.29262, "Name": "三庄公民館", "city_NAME": "尾道市", "city_code": 34205, "kyusui_day": null, "kyusuiTIME": null, "page_day": "8月2日17:00", "kaisi_day": "7月15日", "heisa_text": "7月17日21時閉鎖", "heisa_tag": 1, "tyosa_day": "9月13日", "tyousa_sya": "浅野", "URL": "http:\/\/www.city.onomichi.hiroshima.jp\/soshiki\/65\/20574.html" }, "geometry": { "type": "Point", "coordinates": [ 133.19403, 34.29262 ] } },
{ "type": "Feature", "properties": { "X": 133.2235944, "Y": 34.4555626, "Name": "西藤小学校", "city_NAME": "尾道市", "city_code": 34205, "kyusui_day": null, "kyusuiTIME": null, "page_day": "8月2日17:00", "kaisi_day": null, "heisa_text": "7月19日閉鎖", "heisa_tag": 1, "tyosa_day": "9月13日", "tyousa_sya": "浅野", "URL": "http:\/\/www.city.onomichi.hiroshima.jp\/soshiki\/65\/20574.html" }, "geometry": { "type": "Point", "coordinates": [ 133.2235944, 34.4555626 ] } },
{ "type": "Feature", "properties": { "X": 133.221041, "Y": 34.3990135, "Name": "サンボル尾道", "city_NAME": "尾道市", "city_code": 34205, "kyusui_day": null, "kyusuiTIME": null, "page_day": "8月2日17:00", "kaisi_day": null, "heisa_text": "7月24日9時閉鎖", "heisa_tag": 1, "tyosa_day": "9月13日", "tyousa_sya": "浅野", "URL": "http:\/\/www.city.onomichi.hiroshima.jp\/soshiki\/65\/20574.html" }, "geometry": { "type": "Point", "coordinates": [ 133.221041, 34.3990135 ] } },
{ "type": "Feature", "properties": { "X": 133.1521082, "Y": 34.3452875, "Name": "因島フラワーセンター", "city_NAME": "尾道市", "city_code": 34205, "kyusui_day": null, "kyusuiTIME": null, "page_day": "8月2日17:00", "kaisi_day": null, "heisa_text": "7月24日9時閉鎖", "heisa_tag": 1, "tyosa_day": "9月13日", "tyousa_sya": "浅野", "URL": "http:\/\/www.city.onomichi.hiroshima.jp\/soshiki\/65\/20574.html" }, "geometry": { "type": "Point", "coordinates": [ 133.152108199999986, 34.3452875 ] } },
{ "type": "Feature", "properties": { "X": 133.1704223, "Y": 34.4011381, "Name": "吉和小学校", "city_NAME": "尾道市", "city_code": 34205, "kyusui_day": null, "kyusuiTIME": null, "page_day": "8月2日17:00", "kaisi_day": null, "heisa_text": "7月24日9時閉鎖", "heisa_tag": 1, "tyosa_day": "9月13日", "tyousa_sya": "浅野", "URL": "http:\/\/www.city.onomichi.hiroshima.jp\/soshiki\/65\/20574.html" }, "geometry": { "type": "Point", "coordinates": [ 133.170422300000013, 34.4011381 ] } },
{ "type": "Feature", "properties": { "X": 133.123076, "Y": 34.2782566, "Name": "旧生口中学校", "city_NAME": "尾道市", "city_code": 34205, "kyusui_day": null, "kyusuiTIME": null, "page_day": "8月2日17:00", "kaisi_day": null, "heisa_text": "7月24日9時閉鎖", "heisa_tag": 1, "tyosa_day": "9月13日", "tyousa_sya": "浅野", "URL": "http:\/\/www.city.onomichi.hiroshima.jp\/soshiki\/65\/20574.html" }, "geometry": { "type": "Point", "coordinates": [ 133.123076, 34.2782566 ] } },
{ "type": "Feature", "properties": { "X": 133.1984782, "Y": 34.395676, "Name": "向島支所", "city_NAME": "尾道市", "city_code": 34205, "kyusui_day": null, "kyusuiTIME": null, "page_day": "8月2日17:00", "kaisi_day": null, "heisa_text": "8月2日21時閉鎖", "heisa_tag": 1, "tyosa_day": "9月13日", "tyousa_sya": "浅野", "URL": "http:\/\/www.city.onomichi.hiroshima.jp\/soshiki\/65\/20574.html" }, "geometry": { "type": "Point", "coordinates": [ 133.198478200000011, 34.395676 ] } },
{ "type": "Feature", "properties": { "X": 133.1853998, "Y": 34.4213722, "Name": "総合福祉センター", "city_NAME": "尾道市", "city_code": 34205, "kyusui_day": null, "kyusuiTIME": null, "page_day": "8月2日17:00", "kaisi_day": null, "heisa_text": "7月24日9時閉鎖", "heisa_tag": 1, "tyosa_day": "9月13日", "tyousa_sya": "浅野", "URL": "http:\/\/www.city.onomichi.hiroshima.jp\/soshiki\/65\/20574.html" }, "geometry": { "type": "Point", "coordinates": [ 133.1853998, 34.4213722 ] } },
{ "type": "Feature", "properties": { "X": 133.1711948, "Y": 34.4598973, "Name": "農村環境改善センター", "city_NAME": "尾道市", "city_code": 34205, "kyusui_day": null, "kyusuiTIME": null, "page_day": "8月2日17:00", "kaisi_day": null, "heisa_text": "7月24日9時閉鎖", "heisa_tag": 1, "tyosa_day": "9月13日", "tyousa_sya": "浅野", "URL": "http:\/\/www.city.onomichi.hiroshima.jp\/soshiki\/65\/20574.html" }, "geometry": { "type": "Point", "coordinates": [ 133.1711948, 34.4598973 ] } },
{ "type": "Feature", "properties": { "X": 133.1943798, "Y": 34.4176816, "Name": "尾道市水道局", "city_NAME": "尾道市", "city_code": 34205, "kyusui_day": null, "kyusuiTIME": null, "page_day": "8月2日17:00", "kaisi_day": null, "heisa_text": "8月2日21時閉鎖", "heisa_tag": 1, "tyosa_day": "9月13日", "tyousa_sya": "浅野", "URL": "http:\/\/www.city.onomichi.hiroshima.jp\/soshiki\/65\/20574.html" }, "geometry": { "type": "Point", "coordinates": [ 133.1943798, 34.4176816 ] } },
{ "type": "Feature", "properties": { "X": 133.2051516, "Y": 34.4089986, "Name": "尾道市役所", "city_NAME": "尾道市", "city_code": 34205, "kyusui_day": null, "kyusuiTIME": null, "page_day": "8月2日17:00", "kaisi_day": null, "heisa_text": "8月2日21時閉鎖", "heisa_tag": 1, "tyosa_day": "9月13日", "tyousa_sya": "浅野", "URL": "http:\/\/www.city.onomichi.hiroshima.jp\/soshiki\/65\/20574.html" }, "geometry": { "type": "Point", "coordinates": [ 133.2051516, 34.4089986 ] } },
{ "type": "Feature", "properties": { "X": 133.0951917, "Y": 34.3060272, "Name": "尾道市役所 瀬戸田支所", "city_NAME": "尾道市", "city_code": 34205, "kyusui_day": null, "kyusuiTIME": null, "page_day": "8月2日17:00", "kaisi_day": null, "heisa_text": "8月2日21時閉鎖", "heisa_tag": 1, "tyosa_day": "9月13日", "tyousa_sya": "浅野", "URL": "http:\/\/www.city.onomichi.hiroshima.jp\/soshiki\/65\/20574.html" }, "geometry": { "type": "Point", "coordinates": [ 133.095191699999987, 34.3060272 ] } },
{ "type": "Feature", "properties": { "X": 133.1752074, "Y": 34.4084587, "Name": "尾道西公園", "city_NAME": "尾道市", "city_code": 34205, "kyusui_day": null, "kyusuiTIME": null, "page_day": "8月2日17:00", "kaisi_day": null, "heisa_text": "7月24日9時閉鎖", "heisa_tag": 1, "tyosa_day": "9月13日", "tyousa_sya": "浅野", "URL": "http:\/\/www.city.onomichi.hiroshima.jp\/soshiki\/65\/20574.html" }, "geometry": { "type": "Point", "coordinates": [ 133.1752074, 34.4084587 ] } },
{ "type": "Feature", "properties": { "X": 133.2388937, "Y": 34.4308945, "Name": "尾道東公園", "city_NAME": "尾道市", "city_code": 34205, "kyusui_day": null, "kyusuiTIME": null, "page_day": "8月2日17:00", "kaisi_day": null, "heisa_text": "7月24日9時閉鎖", "heisa_tag": 1, "tyosa_day": "9月13日", "tyousa_sya": "浅野", "URL": "http:\/\/www.city.onomichi.hiroshima.jp\/soshiki\/65\/20574.html" }, "geometry": { "type": "Point", "coordinates": [ 133.2388937, 34.4308945 ] } },
{ "type": "Feature", "properties": { "X": 133.215065, "Y": 34.4306998, "Name": "坊士浄水場", "city_NAME": "尾道市", "city_code": 34205, "kyusui_day": null, "kyusuiTIME": null, "page_day": "8月2日17:00", "kaisi_day": null, "heisa_text": "7月24日9時閉鎖", "heisa_tag": 1, "tyosa_day": "9月13日", "tyousa_sya": "浅野", "URL": "http:\/\/www.city.onomichi.hiroshima.jp\/soshiki\/65\/20574.html" }, "geometry": { "type": "Point", "coordinates": [ 133.215065, 34.4306998 ] } },
{ "type": "Feature", "properties": { "X": 133.2635486, "Y": 34.4824177, "Name": "神村１４区集会所（所在未確定）", "city_NAME": "福山市", "city_code": 34207, "kyusui_day": null, "kyusuiTIME": null, "page_day": "7月18日", "kaisi_day": null, "heisa_text": "14日14時閉鎖", "heisa_tag": 1, "tyosa_day": "9月13日", "tyousa_sya": "浅野", "URL": "http:\/\/www.city.fukuyama.hiroshima.jp\/site\/bosai\/124432.html" }, "geometry": { "type": "Point", "coordinates": [ 133.2635486, 34.4824177 ] } },
{ "type": "Feature", "properties": { "X": 133.2863206, "Y": 34.5019298, "Name": "長者ヶ原集会所", "city_NAME": "福山市", "city_code": 34207, "kyusui_day": null, "kyusuiTIME": null, "page_day": "7月18日", "kaisi_day": null, "heisa_text": "14日14時閉鎖", "heisa_tag": 1, "tyosa_day": "9月13日", "tyousa_sya": "浅野", "URL": "http:\/\/www.city.fukuyama.hiroshima.jp\/site\/bosai\/124432.html" }, "geometry": { "type": "Point", "coordinates": [ 133.28632060000001, 34.5019298 ] } },
{ "type": "Feature", "properties": { "X": 132.8884484, "Y": 34.4720975, "Name": "河内支所", "city_NAME": "東広島市", "city_code": 34212, "kyusui_day": null, "kyusuiTIME": null, "page_day": "07月21日09:00", "kaisi_day": null, "heisa_text": "19日19時閉鎖", "heisa_tag": 1, "tyosa_day": "9月13日", "tyousa_sya": "浅野", "URL": "http:\/\/www.city.higashihiroshima.lg.jp\/suido\/17944.html" }, "geometry": { "type": "Point", "coordinates": [ 132.888448399999987, 34.4720975 ] } },
{ "type": "Feature", "properties": { "X": 132.8648302, "Y": 34.4509688, "Name": "入野小学校", "city_NAME": "東広島市", "city_code": 34212, "kyusui_day": null, "kyusuiTIME": null, "page_day": "07月21日09:00", "kaisi_day": null, "heisa_text": "21日9時閉鎖", "heisa_tag": 1, "tyosa_day": "9月13日", "tyousa_sya": "浅野", "URL": "http:\/\/www.city.higashihiroshima.lg.jp\/suido\/17944.html" }, "geometry": { "type": "Point", "coordinates": [ 132.8648302, 34.4509688 ] } },
{ "type": "Feature", "properties": { "X": 132.886945, "Y": 34.4456438, "Name": "篁老人集会所", "city_NAME": "東広島市", "city_code": 34212, "kyusui_day": null, "kyusuiTIME": null, "page_day": "07月21日09:00", "kaisi_day": null, "heisa_text": "21日9時閉鎖", "heisa_tag": 1, "tyosa_day": "9月13日", "tyousa_sya": "浅野", "URL": "http:\/\/www.city.higashihiroshima.lg.jp\/suido\/17944.html" }, "geometry": { "type": "Point", "coordinates": [ 132.886945, 34.4456438 ] } },
{ "type": "Feature", "properties": { "X": 132.7187061, "Y": 34.6110892, "Name": "向原生涯学習センターみらい", "city_NAME": "安芸高田市", "city_code": 34214, "kyusui_day": null, "kyusuiTIME": null, "page_day": "7月21日", "kaisi_day": "7月5日", "heisa_text": "7月21日閉鎖", "heisa_tag": 1, "tyosa_day": "9月13日", "tyousa_sya": "浅野", "URL": "http:\/\/www.akitakata.jp\/ja\/shisei\/section\/gesui\/z515\/" }, "geometry": { "type": "Point", "coordinates": [ 132.7187061, 34.6110892 ] } },
{ "type": "Feature", "properties": { "X": 132.451416, "Y": 34.1694714, "Name": "さとうみ科学館", "city_NAME": "江田島市", "city_code": 34215, "kyusui_day": null, "kyusuiTIME": null, "page_day": "7月24日19:00", "kaisi_day": "7月12日", "heisa_text": "閉鎖", "heisa_tag": 1, "tyosa_day": "9月13日", "tyousa_sya": "浅野", "URL": "http:\/\/www.city.etajima.hiroshima.jp\/cms\/articles\/show\/5684" }, "geometry": { "type": "Point", "coordinates": [ 132.451416, 34.1694714 ] } },
{ "type": "Feature", "properties": { "X": 132.4733001, "Y": 34.2055425, "Name": "ゆめタウン江田島駐車場", "city_NAME": "江田島市", "city_code": 34215, "kyusui_day": null, "kyusuiTIME": null, "page_day": "7月24日19:00", "kaisi_day": null, "heisa_text": "閉鎖", "heisa_tag": 1, "tyosa_day": "9月13日", "tyousa_sya": "浅野", "URL": "http:\/\/www.city.etajima.hiroshima.jp\/cms\/articles\/show\/5684" }, "geometry": { "type": "Point", "coordinates": [ 132.473300099999989, 34.2055425 ] } },
{ "type": "Feature", "properties": { "X": 132.4782796, "Y": 34.2334956, "Name": "海上自衛隊鷲部官舎駐車場", "city_NAME": "江田島市", "city_code": 34215, "kyusui_day": null, "kyusuiTIME": null, "page_day": "7月24日19:00", "kaisi_day": "7月12日", "heisa_text": "閉鎖", "heisa_tag": 1, "tyosa_day": "9月13日", "tyousa_sya": "浅野", "URL": "http:\/\/www.city.etajima.hiroshima.jp\/cms\/articles\/show\/5684" }, "geometry": { "type": "Point", "coordinates": [ 132.4782796, 34.2334956 ] } },
{ "type": "Feature", "properties": { "X": 132.4607943, "Y": 34.2529222, "Name": "宮ノ原交流プラザ", "city_NAME": "江田島市", "city_code": 34215, "kyusui_day": null, "kyusuiTIME": null, "page_day": "7月24日19:00", "kaisi_day": "7月12日", "heisa_text": "閉鎖", "heisa_tag": 1, "tyosa_day": "9月13日", "tyousa_sya": "浅野", "URL": "http:\/\/www.city.etajima.hiroshima.jp\/cms\/articles\/show\/5684" }, "geometry": { "type": "Point", "coordinates": [ 132.4607943, 34.2529222 ] } },
{ "type": "Feature", "properties": { "X": 132.4909893, "Y": 34.226957, "Name": "旧秋月小学校", "city_NAME": "江田島市", "city_code": 34215, "kyusui_day": null, "kyusuiTIME": null, "page_day": "7月24日19:00", "kaisi_day": "7月12日", "heisa_text": "閉鎖", "heisa_tag": 1, "tyosa_day": "9月13日", "tyousa_sya": "浅野", "URL": "http:\/\/www.city.etajima.hiroshima.jp\/cms\/articles\/show\/5684" }, "geometry": { "type": "Point", "coordinates": [ 132.4909893, 34.226957 ] } },
{ "type": "Feature", "properties": { "X": 132.4789166, "Y": 34.2843003, "Name": "旧切串中学校", "city_NAME": "江田島市", "city_code": 34215, "kyusui_day": null, "kyusuiTIME": null, "page_day": "7月24日19:00", "kaisi_day": null, "heisa_text": "閉鎖", "heisa_tag": 1, "tyosa_day": "9月13日", "tyousa_sya": "浅野", "URL": "http:\/\/www.city.etajima.hiroshima.jp\/cms\/articles\/show\/5684" }, "geometry": { "type": "Point", "coordinates": [ 132.4789166, 34.2843003 ] } },
{ "type": "Feature", "properties": { "X": 132.4353468, "Y": 34.2362109, "Name": "高田桟橋駐車場南側", "city_NAME": "江田島市", "city_code": 34215, "kyusui_day": null, "kyusuiTIME": null, "page_day": "7月24日19:00", "kaisi_day": "7月12日", "heisa_text": "閉鎖", "heisa_tag": 1, "tyosa_day": "9月13日", "tyousa_sya": "浅野", "URL": "http:\/\/www.city.etajima.hiroshima.jp\/cms\/articles\/show\/5684" }, "geometry": { "type": "Point", "coordinates": [ 132.4353468, 34.2362109 ] } },
{ "type": "Feature", "properties": { "X": 132.4068175, "Y": 34.2585632, "Name": "三高支所", "city_NAME": "江田島市", "city_code": 34215, "kyusui_day": null, "kyusuiTIME": null, "page_day": "7月24日19:00", "kaisi_day": null, "heisa_text": "7月17日移設により閉鎖", "heisa_tag": 1, "tyosa_day": "9月13日", "tyousa_sya": "浅野", "URL": "http:\/\/www.city.etajima.hiroshima.jp\/cms\/articles\/show\/5684" }, "geometry": { "type": "Point", "coordinates": [ 132.406817499999988, 34.2585632 ] } },
{ "type": "Feature", "properties": { "X": 132.4927622, "Y": 34.2492175, "Name": "小用みなと公園", "city_NAME": "江田島市", "city_code": 34215, "kyusui_day": null, "kyusuiTIME": null, "page_day": "7月24日19:00", "kaisi_day": "7月12日", "heisa_text": "閉鎖", "heisa_tag": 1, "tyosa_day": "9月13日", "tyousa_sya": "浅野", "URL": "http:\/\/www.city.etajima.hiroshima.jp\/cms\/articles\/show\/5684" }, "geometry": { "type": "Point", "coordinates": [ 132.492762199999987, 34.2492175 ] } },
{ "type": "Feature", "properties": { "X": 132.4632753, "Y": 34.1748029, "Name": "大柿市民センター(旧大柿公民館)", "city_NAME": "江田島市", "city_code": 34215, "kyusui_day": null, "kyusuiTIME": null, "page_day": "7月24日19:00", "kaisi_day": null, "heisa_text": "閉鎖", "heisa_tag": 1, "tyosa_day": "9月13日", "tyousa_sya": "浅野", "URL": "http:\/\/www.city.etajima.hiroshima.jp\/cms\/articles\/show\/5684" }, "geometry": { "type": "Point", "coordinates": [ 132.4632753, 34.1748029 ] } },
{ "type": "Feature", "properties": { "X": 132.4724311, "Y": 34.2441978, "Name": "第１術科学校", "city_NAME": "江田島市", "city_code": 34215, "kyusui_day": null, "kyusuiTIME": null, "page_day": "7月24日19:00", "kaisi_day": null, "heisa_text": "閉鎖", "heisa_tag": 1, "tyosa_day": "9月13日", "tyousa_sya": "浅野", "URL": "http:\/\/www.city.etajima.hiroshima.jp\/cms\/articles\/show\/5684" }, "geometry": { "type": "Point", "coordinates": [ 132.4724311, 34.2441978 ] } },
{ "type": "Feature", "properties": { "X": 132.4439085, "Y": 34.2118066, "Name": "能美運動公園", "city_NAME": "江田島市", "city_code": 34215, "kyusui_day": null, "kyusuiTIME": null, "page_day": "7月24日19:00", "kaisi_day": null, "heisa_text": "閉鎖", "heisa_tag": 1, "tyosa_day": "9月13日", "tyousa_sya": "浅野", "URL": "http:\/\/www.city.etajima.hiroshima.jp\/cms\/articles\/show\/5684" }, "geometry": { "type": "Point", "coordinates": [ 132.4439085, 34.2118066 ] } },
{ "type": "Feature", "properties": { "X": 132.4435772, "Y": 34.2228719, "Name": "能美市民センター", "city_NAME": "江田島市", "city_code": 34215, "kyusui_day": null, "kyusuiTIME": null, "page_day": "7月24日19:00", "kaisi_day": null, "heisa_text": "閉鎖", "heisa_tag": 1, "tyosa_day": "9月13日", "tyousa_sya": "浅野", "URL": "http:\/\/www.city.etajima.hiroshima.jp\/cms\/articles\/show\/5684" }, "geometry": { "type": "Point", "coordinates": [ 132.4435772, 34.2228719 ] } },
{ "type": "Feature", "properties": { "X": 132.4096528, "Y": 34.20376944, "Name": "ＪＡ呉沖支店前", "city_NAME": "江田島市", "city_code": 34215, "kyusui_day": null, "kyusuiTIME": null, "page_day": "7月24日19:00", "kaisi_day": "7月17日", "heisa_text": "閉鎖", "heisa_tag": 1, "tyosa_day": "9月13日", "tyousa_sya": "浅野", "URL": "http:\/\/www.city.etajima.hiroshima.jp\/cms\/articles\/show\/5684" }, "geometry": { "type": "Point", "coordinates": [ 132.4096528, 34.20376944 ] } },
{ "type": "Feature", "properties": { "X": 132.4062389, "Y": 34.25815556, "Name": "ＪＡ呉三高支店", "city_NAME": "江田島市", "city_code": 34215, "kyusui_day": null, "kyusuiTIME": null, "page_day": "7月24日19:00", "kaisi_day": "7月17日", "heisa_text": "7月25日閉鎖", "heisa_tag": 1, "tyosa_day": "9月13日", "tyousa_sya": "浅野", "URL": "http:\/\/www.city.etajima.hiroshima.jp\/cms\/articles\/show\/5684" }, "geometry": { "type": "Point", "coordinates": [ 132.4062389, 34.25815556 ] } },
{ "type": "Feature", "properties": { "X": 132.3957472, "Y": 34.21587778, "Name": "ＪＡ呉是長ふれあい店前", "city_NAME": "江田島市", "city_code": 34215, "kyusui_day": null, "kyusuiTIME": null, "page_day": "7月24日19:00", "kaisi_day": "7月17日", "heisa_text": "7月24日閉鎖", "heisa_tag": 1, "tyosa_day": "9月13日", "tyousa_sya": "浅野", "URL": "http:\/\/www.city.etajima.hiroshima.jp\/cms\/articles\/show\/5684" }, "geometry": { "type": "Point", "coordinates": [ 132.395747199999988, 34.21587778 ] } },
{ "type": "Feature", "properties": { "X": 132.3826535, "Y": 34.256507, "Name": "沖美ふれあいセンター", "city_NAME": "江田島市", "city_code": 34215, "kyusui_day": null, "kyusuiTIME": null, "page_day": "7月24日19:00", "kaisi_day": "7月12日", "heisa_text": "7月25日閉鎖", "heisa_tag": 1, "tyosa_day": "9月13日", "tyousa_sya": "浅野", "URL": "http:\/\/www.city.etajima.hiroshima.jp\/cms\/articles\/show\/5684" }, "geometry": { "type": "Point", "coordinates": [ 132.3826535, 34.256507 ] } },
{ "type": "Feature", "properties": { "X": 132.4054456, "Y": 34.2094021, "Name": "沖美市民センター", "city_NAME": "江田島市", "city_code": 34215, "kyusui_day": null, "kyusuiTIME": null, "page_day": "7月24日19:00", "kaisi_day": null, "heisa_text": "7月24日閉鎖", "heisa_tag": 1, "tyosa_day": "9月13日", "tyousa_sya": "浅野", "URL": "http:\/\/www.city.etajima.hiroshima.jp\/cms\/articles\/show\/5684" }, "geometry": { "type": "Point", "coordinates": [ 132.4054456, 34.2094021 ] } },
{ "type": "Feature", "properties": { "X": 132.4067892, "Y": 34.25165278, "Name": "関西美人酒造跡地（三吉）", "city_NAME": "江田島市", "city_code": 34215, "kyusui_day": null, "kyusuiTIME": null, "page_day": "7月24日19:00", "kaisi_day": "7月18日", "heisa_text": "7月25日閉鎖", "heisa_tag": 1, "tyosa_day": "9月13日", "tyousa_sya": "浅野", "URL": "http:\/\/www.city.etajima.hiroshima.jp\/cms\/articles\/show\/5684" }, "geometry": { "type": "Point", "coordinates": [ 132.4067892, 34.25165278 ] } },
{ "type": "Feature", "properties": { "X": 132.39904, "Y": 34.25968, "Name": "高祖多目的集会所", "city_NAME": "江田島市", "city_code": 34215, "kyusui_day": null, "kyusuiTIME": null, "page_day": "7月24日19:00", "kaisi_day": "7月19日", "heisa_text": "7月25日閉鎖", "heisa_tag": 1, "tyosa_day": "9月13日", "tyousa_sya": "浅野", "URL": "http:\/\/www.city.etajima.hiroshima.jp\/cms\/articles\/show\/5684" }, "geometry": { "type": "Point", "coordinates": [ 132.39904, 34.25968 ] } },
{ "type": "Feature", "properties": { "X": 132.3803389, "Y": 34.253325, "Name": "美能漁業協同組合前", "city_NAME": "江田島市", "city_code": 34215, "kyusui_day": null, "kyusuiTIME": null, "page_day": "7月24日19:00", "kaisi_day": "7月19日", "heisa_text": "7月25日閉鎖", "heisa_tag": 1, "tyosa_day": "9月13日", "tyousa_sya": "浅野", "URL": "http:\/\/www.city.etajima.hiroshima.jp\/cms\/articles\/show\/5684" }, "geometry": { "type": "Point", "coordinates": [ 132.3803389, 34.253325 ] } },
{ "type": "Feature", "properties": { "X": 132.5159445, "Y": 34.3409579, "Name": "グランコート坂", "city_NAME": "坂町", "city_code": 34309, "kyusui_day": null, "kyusuiTIME": null, "page_day": "8月11日", "kaisi_day": null, "heisa_text": "情報なし", "heisa_tag": 1, "tyosa_day": "9月13日", "tyousa_sya": "浅野", "URL": "http:\/\/www.water.city.hiroshima.jp\/gouu.html" }, "geometry": { "type": "Point", "coordinates": [ 132.515944499999989, 34.3409579 ] } },
{ "type": "Feature", "properties": { "X": 132.5133213, "Y": 34.3412901, "Name": "坂町役場", "city_NAME": "坂町", "city_code": 34309, "kyusui_day": null, "kyusuiTIME": null, "page_day": "8月11日", "kaisi_day": null, "heisa_text": "情報なし", "heisa_tag": 1, "tyosa_day": "9月13日", "tyousa_sya": "浅野", "URL": "http:\/\/www.water.city.hiroshima.jp\/gouu.html" }, "geometry": { "type": "Point", "coordinates": [ 132.5133213, 34.3412901 ] } },
{ "type": "Feature", "properties": { "X": 132.5145149, "Y": 34.3277063, "Name": "上条児童遊園地", "city_NAME": "坂町", "city_code": 34309, "kyusui_day": null, "kyusuiTIME": null, "page_day": "8月11日", "kaisi_day": null, "heisa_text": "情報なし", "heisa_tag": 1, "tyosa_day": "9月13日", "tyousa_sya": "浅野", "URL": "http:\/\/www.water.city.hiroshima.jp\/gouu.html" }, "geometry": { "type": "Point", "coordinates": [ 132.5145149, 34.3277063 ] } },
{ "type": "Feature", "properties": { "X": 132.5076914, "Y": 34.3281183, "Name": "植田第一公園下", "city_NAME": "坂町", "city_code": 34309, "kyusui_day": null, "kyusuiTIME": null, "page_day": "8月11日", "kaisi_day": null, "heisa_text": "7月16日閉鎖", "heisa_tag": 1, "tyosa_day": "9月13日", "tyousa_sya": "浅野", "URL": "http:\/\/www.water.city.hiroshima.jp\/gouu.html" }, "geometry": { "type": "Point", "coordinates": [ 132.5076914, 34.3281183 ] } },
{ "type": "Feature", "properties": { "X": 132.5067338, "Y": 34.3299889, "Name": "植田中央公園", "city_NAME": "坂町", "city_code": 34309, "kyusui_day": null, "kyusuiTIME": null, "page_day": "8月11日", "kaisi_day": null, "heisa_text": "情報なし", "heisa_tag": 1, "tyosa_day": "9月13日", "tyousa_sya": "浅野", "URL": "http:\/\/www.water.city.hiroshima.jp\/gouu.html" }, "geometry": { "type": "Point", "coordinates": [ 132.5067338, 34.3299889 ] } },
{ "type": "Feature", "properties": { "X": 132.509471, "Y": 34.3019947, "Name": "小屋浦ふれあいセンター付近", "city_NAME": "坂町", "city_code": 34309, "kyusui_day": null, "kyusuiTIME": null, "page_day": "8月11日", "kaisi_day": null, "heisa_text": "8月10日断水解消", "heisa_tag": 1, "tyosa_day": "9月13日", "tyousa_sya": "浅野", "URL": "http:\/\/www.water.city.hiroshima.jp\/gouu.html" }, "geometry": { "type": "Point", "coordinates": [ 132.509471, 34.3019947 ] } },
{ "type": "Feature", "properties": { "X": 132.5097553, "Y": 34.305008, "Name": "小屋浦四丁目バス停付近", "city_NAME": "坂町", "city_code": 34309, "kyusui_day": null, "kyusuiTIME": null, "page_day": "8月11日", "kaisi_day": null, "heisa_text": "8月10日断水解消", "heisa_tag": 1, "tyosa_day": "9月13日", "tyousa_sya": "浅野", "URL": "http:\/\/www.water.city.hiroshima.jp\/gouu.html" }, "geometry": { "type": "Point", "coordinates": [ 132.5097553, 34.305008 ] } },
{ "type": "Feature", "properties": { "X": 132.9958749, "Y": 34.2488849, "Name": "大三島支所", "city_NAME": "今治市", "city_code": 38202, "kyusui_day": null, "kyusuiTIME": null, "page_day": "7月13日", "kaisi_day": null, "heisa_text": "7月13日12時 閉鎖", "heisa_tag": 1, "tyosa_day": "9月13日", "tyousa_sya": "浅野", "URL": "http:\/\/www.imabari-suidou.jp\/kinkyu\/?id=74" }, "geometry": { "type": "Point", "coordinates": [ 132.9958749, 34.2488849 ] } },
{ "type": "Feature", "properties": { "X": 133.1137204, "Y": 34.2048404, "Name": "伯方支所", "city_NAME": "今治市", "city_code": 38202, "kyusui_day": null, "kyusuiTIME": null, "page_day": "7月13日", "kaisi_day": null, "heisa_text": "7月13日12時 閉鎖", "heisa_tag": 1, "tyosa_day": "9月13日", "tyousa_sya": "浅野", "URL": "http:\/\/www.imabari-suidou.jp\/kinkyu\/?id=74" }, "geometry": { "type": "Point", "coordinates": [ 133.1137204, 34.2048404 ] } },
{ "type": "Feature", "properties": { "X": 132.5178596, "Y": 33.3185648, "Name": "JAえひめ南玉津支所", "city_NAME": "宇和島市", "city_code": 38203, "kyusui_day": null, "kyusuiTIME": null, "page_day": "8月11日", "kaisi_day": null, "heisa_text": "7月20日閉鎖", "heisa_tag": 1, "tyosa_day": "9月13日", "tyousa_sya": "浅野", "URL": "https:\/\/www.city.uwajima.ehime.jp\/soshiki\/36\/saigai-honbu-dansui.html" },